SALE TYPE,SOLD DATE,PROPERTY TYPE,ADDRESS,CITY,STATE OR PROVINCE,ZIP OR POSTAL CODE,PRICE,BEDS,BATHS,LOCATION,SQUARE FEET,LOT SIZE,YEAR BUILT,DAYS ON MARKET,$/SQUARE FEET,HOA/MONTH,STATUS,NEXT OPEN HOUSE START TIME,NEXT OPEN HOUSE END TIME,URL (SEE https://www.redfin.com/buy-a-home/comparative-market-analysis FOR INFO ON PRICING),SOURCE,MLS#,FAVORITE,INTERESTED,LATITUDE,LONGITUDE
PAST SALE,November-24-2020,Single Family Residential,13939 SE Fircrest St,Portland,OR,97236,546000,4,2.5,Portland Southeast,2850,7405,2007,,192,17,Sold,,,https://www.redfin.com/OR/Portland/13939-SE-Fircrest-St-97236/home/25768821,RMLS,20609620,N,Y,45.4643131,-122.5196772
PAST SALE,April-19-2021,Single Family Residential,4054 NE 9th Ave,Portland,OR,97212,788000,4,3.0,SABIN/ALBERTA ARTS,3639,4791,1924,,217,,Sold,,,https://www.redfin.com/OR/Portland/4054-NE-9th-Ave-97212/home/26411308,RMLS,21246514,N,Y,45.5528667,-122.656374
PAST SALE,May-26-2021,Single Family Residential,8509 N Newman Ave,Portland,OR,97203,535000,3,1.5,PORTSMOUTH,1334,4791,1960,,401,,Sold,,,https://www.redfin.com/OR/Portland/8509-N-Newman-Ave-97203/home/25841781,RMLS,21355777,N,Y,45.5846645,-122.7156552
PAST SALE,May-29-2020,Single Family Residential,5615 SE 115th Ave,Portland,OR,97266,365500,3,2.0,Portland Southeast,2132,19602,1962,,171,,Sold,,,https://www.redfin.com/OR/Portland/5615-SE-115th-Ave-97266/home/26315401,RMLS,20506903,N,Y,45.4817897,-122.5451904
PAST SALE,March-16-2021,Condo/Co-op,16449 NW Chadwick Way #208,Portland,OR,97229,308000,2,2.0,NW Washington Co or Sauvie Island,1057,,2018,,291,280,Sold,,,https://www.redfin.com/OR/Portland/16449-NW-Chadwick-Way-97229/unit-208/home/170144503,RMLS,21570370,N,Y,45.5694948,-122.8464335
PAST SALE,July-9-2021,Single Family Residential,13555 NW Thompson Rd,Portland,OR,97229,560000,3,2.0,NW Washington Co or Sauvie Island,1756,14810,1961,,319,,Sold,,,https://www.redfin.com/OR/Portland/13555-NW-Thompson-Rd-97229/home/26572077,RMLS,21576746,N,Y,45.5465949,-122.8164491
PAST SALE,August-31-2020,Condo/Co-op,1009 NW Hoyt St #205,Portland,OR,97209,610000,1,2.0,"Portland West, Raleigh Hills",1477,,1994,,413,615,Sold,,,https://www.redfin.com/OR/Portland/1009-NW-Hoyt-St-97209/unit-205/home/26323384,RMLS,20359407,N,Y,45.5276782,-122.6814685
PAST SALE,July-2-2021,Single Family Residential,4917 N Hudson St,Portland,OR,97203,476500,3,2.5,New Columbia/Portsmouth,1700,3049,2008,,280,102,Sold,,,https://www.redfin.com/OR/Portland/4917-N-Hudson-St-97203/home/25768734,RMLS,21221338,N,Y,45.5882593,-122.7173773
PAST SALE,July-24-2020,Condo/Co-op,12806 SW Boones Ferry Rd,Lake Oswego,OR,97035,400000,3,2.5,"Lake Oswego, West Linn",1174,,2005,,341,260,Sold,,,https://www.redfin.com/OR/Lake-Oswego/12806-SW-Boones-Ferry-Rd-97035/unit-103/home/25853766,RMLS,20113620,N,Y,45.432809,-122.7015019
PAST SALE,July-29-2020,Multi-Family (2-4 Unit),9012 SE Steele St,Portland,OR,97266,615000,4,3.5,LENTS PARK,2630,3484,2017,,234,,Sold,,,https://www.redfin.com/OR/Portland/9012-SE-Steele-St-97266/unit-A/home/109514499,RMLS,20079339,N,Y,45.48443,-122.570236
PAST SALE,October-23-2020,Single Family Residential,16632 SE Ankeny St,Portland,OR,97233,370000,4,2.0,Portland Southeast,1222,6969,1958,,303,,Sold,,,https://www.redfin.com/OR/Portland/16632-SE-Ankeny-St-97233/home/26645658,RMLS,20353140,N,Y,45.5211773,-122.4915182
PAST SALE,May-12-2021,Condo/Co-op,1540 NE Sumner St,Portland,OR,97211,660000,3,2.5,Portland Northeast,1742,,2018,,379,25,Sold,,,https://www.redfin.com/OR/Portland/1540-NE-Sumner-St-97211/home/170025301,RMLS,21223158,N,Y,45.560194,-122.649355
PAST SALE,September-24-2021,Single Family Residential,8748 SE Knapp St,Portland,OR,97266,375000,3,2.0,Portland Southeast,1197,6534,1910,,313,,Sold,,,https://www.redfin.com/OR/Portland/8748-SE-Knapp-St-97266/home/25794644,RMLS,21123724,N,Y,45.4701024,-122.5726789
PAST SALE,July-20-2020,Single Family Residential,7219 SE Insley St,Portland,OR,97206,375000,2,1.0,Portland Southeast,1356,4791,1907,,277,,Sold,,,https://www.redfin.com/OR/Portland/7219-SE-Insley-St-97206/home/26468341,RMLS,20298399,N,Y,45.4839145,-122.5886195
PAST SALE,March-5-2021,Single Family Residential,3404 SE 51st Ave,Portland,OR,97206,625000,5,2.0,Portland Southeast,3387,4791,1908,,185,,Sold,,,https://www.redfin.com/OR/Portland/3404-SE-51st-Ave-97206/home/25812367,RMLS,20354328,N,Y,45.4982341,-122.6098567
PAST SALE,June-18-2020,Single Family Residential,12610 NW Milazzo Ln,Portland,OR,97229,570000,3,2.5,BAUER HIGHLANDS/ BETHANY,2550,3920,2002,,224,20,Sold,,,https://www.redfin.com/OR/Portland/12610-NW-Milazzo-Ln-97229/home/26707829,RMLS,20298664,N,Y,45.5511544,-122.8070284
PAST SALE,May-22-2020,Single Family Residential,7251 SW 33rd Ave,Portland,OR,97219,695000,4,3.5,"Portland West, Raleigh Hills",3052,14374,1964,,228,,Sold,,,https://www.redfin.com/OR/Portland/7251-SW-33rd-Ave-97219/home/25855805,RMLS,20043574,N,Y,45.4718081,-122.7105147
PAST SALE,August-14-2020,Single Family Residential,7010 SE Norbert Dr,Milwaukie,OR,97222,495000,4,3.0,"Milwaukie, Gladstone, Happy Valley, Clckmas, Dmscus, Estacada",2030,11761,1964,,244,,Sold,,,https://www.redfin.com/OR/Milwaukie/7010-SE-Norbert-Dr-97222/home/26058451,RMLS,20157372,N,Y,45.4420914,-122.5911623
PAST SALE,September-1-2020,Single Family Residential,4224 SE Ivon St,Portland,OR,97206,500000,3,1.0,Portland Southeast,1008,3920,1970,,496,,Sold,,,https://www.redfin.com/OR/Portland/4224-SE-Ivon-St-97206/home/25857438,RMLS,20016781,N,Y,45.5038205,-122.6185472
PAST SALE,August-7-2020,Single Family Residential,3155 NE 80th Ave,Portland,OR,97213,413500,2,1.0,Portland Northeast,1176,4791,1954,,352,,Sold,,,https://www.redfin.com/OR/Portland/3155-NE-80th-Ave-97213/home/25768435,RMLS,20677019,N,Y,45.5453879,-122.5810743
PAST SALE,September-9-2020,Townhouse,10582 SW Windwood Way,Portland,OR,97210,526000,2,2.5,"Portland West, Raleigh Hills",2082,1306,2007,,253,335,Sold,,,https://www.redfin.com/OR/Portland/10582-SW-Windwood-Way-97225/home/26720076,RMLS,20490229,N,Y,45.5152519,-122.7850462
PAST SALE,June-9-2021,Condo/Co-op,971 N Killingsworth Ct,Portland,OR,97217,425000,2,2.5,Portland North,1104,,2017,,385,165,Sold,,,https://www.redfin.com/OR/Portland/971-N-Killingsworth-Ct-97217/home/113643035,RMLS,21077340,N,Y,45.5619851,-122.6768371
PAST SALE,September-1-2020,Single Family Residential,8332 N Dickens St,Portland,OR,97203,433000,2,1.0,ST JOHNS,2728,4791,1927,,159,,Sold,,,https://www.redfin.com/OR/Portland/8332-N-Dickens-St-97203/home/26428717,RMLS,20624989,N,Y,45.5919277,-122.7510987
PAST SALE,April-2-2021,Single Family Residential,16822 NE Schuyler Ct,Portland,OR,97230,525000,3,2.0,Portland Northeast,1961,6969,1994,,268,,Sold,,,https://www.redfin.com/OR/Portland/16822-NE-Schuyler-Ct-97230/home/26630872,RMLS,21304795,N,Y,45.5358748,-122.4900951
PAST SALE,July-14-2021,Single Family Residential,433 SE 30th Ave,Portland,OR,97214,645000,4,2.5,Portland Southeast,2217,2178,2014,,291,,Sold,,,https://www.redfin.com/OR/Portland/433-SE-30th-Ave-97214/home/52927292,RMLS,21300081,N,Y,45.5194705,-122.6351344
PAST SALE,January-28-2021,Single Family Residential,9706 NE Prescott St,Portland,OR,97220,468000,5,3.0,Maywood Park,2264,7840,1961,,207,,Sold,,,https://www.redfin.com/OR/Portland/9706-NE-Prescott-St-97220/home/26571331,RMLS,20573377,N,Y,45.5551199,-122.5626963
PAST SALE,October-25-2021,Single Family Residential,8424 NE Humboldt St,Portland,OR,97220,335000,2,1.0,Portland Northeast,848,6098,1948,,395,,Sold,,,https://www.redfin.com/OR/Portland/8424-NE-Humboldt-St-97220/home/26504877,RMLS,21204498,N,Y,45.558434,-122.5759994
PAST SALE,June-11-2021,Single Family Residential,5117 NE 16th Ave,Portland,OR,97211,665000,4,2.0,Portland Northeast,2278,4791,1910,,292,,Sold,,,https://www.redfin.com/OR/Portland/5117-NE-16th-Ave-97211/home/26526272,RMLS,21077096,N,Y,45.5599577,-122.6490011
PAST SALE,August-25-2021,Single Family Residential,721 NE Prescott St,Portland,OR,97211,810000,4,2.5,Portland Northeast,3205,4791,2013,,253,,Sold,,,https://www.redfin.com/OR/Portland/721-NE-Prescott-St-97211/home/39967997,RMLS,21506752,N,Y,45.5556789,-122.6579927
PAST SALE,May-20-2021,Single Family Residential,3675 SE Center St,Portland,OR,97202,712000,3,3.0,CRESTON - KENILWORTH,2623,4791,1925,,271,,Sold,,,https://www.redfin.com/OR/Portland/3675-SE-Center-St-97202/home/26430067,RMLS,21159178,N,Y,45.4942945,-122.624994
PAST SALE,July-24-2020,Single Family Residential,8719 N Portsmouth Ave,Portland,OR,97203,410000,3,1.5,Portland North,1288,6534,2000,,318,,Sold,,,https://www.redfin.com/OR/Portland/8719-N-Portsmouth-Ave-97203/home/26523430,RMLS,20626301,N,Y,45.5861458,-122.7216827
PAST SALE,August-20-2020,Single Family Residential,1742 SE 151st Ave,Portland,OR,97233,365000,5,2.0,Portland Southeast,1904,7405,1960,,192,,Sold,,,https://www.redfin.com/OR/Portland/1742-SE-151st-Ave-97233/home/26491064,RMLS,20571994,N,Y,45.5106582,-122.5070214
PAST SALE,June-23-2020,Single Family Residential,1825 NE 153rd Pl,Portland,OR,97230,385000,3,2.0,Portland Northeast,1415,9147,1963,,272,,Sold,,,https://www.redfin.com/OR/Portland/1825-NE-153rd-Pl-97230/home/26594649,RMLS,20131150,N,Y,45.5362947,-122.5054089
PAST SALE,August-28-2020,Single Family Residential,7230 SW Benz Park Ct,Portland,OR,97225,434000,2,1.0,"Portland West, Raleigh Hills",1536,11761,1939,,283,,Sold,,,https://www.redfin.com/OR/Portland/7230-SW-Benz-Park-Ct-97225/home/26685209,RMLS,20384911,N,Y,45.5032664,-122.7513171
PAST SALE,July-7-2020,Single Family Residential,221 NE 117th Ave,Portland,OR,97220,330000,3,2.0,Filbert Grove,1319,6098,1953,,250,,Sold,,,https://www.redfin.com/OR/Portland/221-NE-117th-Ave-97220/home/26463648,RMLS,20542862,N,Y,45.524296,-122.5426624
PAST SALE,July-30-2020,Single Family Residential,3314 NE 65th Ave,Portland,OR,97213,545000,2,2.0,ROSE CITY,2300,4791,1940,,237,,Sold,,,https://www.redfin.com/OR/Portland/3314-NE-65th-Ave-97213/home/26528423,RMLS,20090891,N,Y,45.547159,-122.5960753
PAST SALE,October-16-2020,Single Family Residential,7425 SE 22nd Ave,Portland,OR,97202,685000,4,2.0,Westmoreland,2384,4791,1925,,287,,Sold,,,https://www.redfin.com/OR/Portland/7425-SE-22nd-Ave-97202/home/26337487,RMLS,20012817,N,Y,45.471286,-122.6427516
PAST SALE,September-18-2020,Single Family Residential,1905 SE Division St,Portland,OR,97202,689000,4,2.0,LADD'S ADDITION,2288,5227,1924,,301,,Sold,,,https://www.redfin.com/OR/Portland/1905-SE-Division-St-97202/home/26552803,RMLS,20004749,N,Y,45.505003,-122.6465749
PAST SALE,August-18-2021,Single Family Residential,6034 NE 34th Ave,Portland,OR,97211,685000,4,2.0,CONCORDIA,2024,4791,1929,,338,,Sold,,,https://www.redfin.com/OR/Portland/6034-NE-34th-Ave-97211/home/26586075,RMLS,21592272,N,Y,45.5669748,-122.6293972
PAST SALE,May-4-2021,Single Family Residential,3315 SE Cesar E Chavez Blvd,Portland,OR,97202,530000,5,4.0,Portland Southeast,2796,4356,1930,,190,,Sold,,,https://www.redfin.com/OR/Portland/3315-SE-Cesar-Estrada-Chavez-Blvd-97202/home/26410913,RMLS,21118429,N,Y,45.498778,-122.622914
PAST SALE,October-13-2021,Single Family Residential,5727 SE 86th Ave,Portland,OR,97266,383674,3,2.0,Portland Southeast,1056,3920,1991,,363,,Sold,,,https://www.redfin.com/OR/Portland/5727-SE-86th-Ave-97266/home/26302795,RMLS,21173688,N,Y,45.4808234,-122.5752073
PAST SALE,June-28-2021,Condo/Co-op,6832 N Hudson St,Portland,OR,97203,469500,3,2.5,Portland North,1625,,2020,,289,15,Sold,,,https://www.redfin.com/OR/Portland/6832-N-Hudson-St-97203/home/172970949,RMLS,21296942,N,Y,45.588856,-122.735582
PAST SALE,July-7-2020,Single Family Residential,9725 SW Ventura Ct,Tigard,OR,97223,559000,4,2.0,"Tigard, Tualatin, Sherwood, Wilsonville",2886,9147,1977,,194,9,Sold,,,https://www.redfin.com/OR/Tigard/9725-SW-Ventura-Ct-97223/home/25794238,RMLS,20440821,N,Y,45.4502084,-122.7478354
PAST SALE,February-25-2021,Single Family Residential,2519 NW Marsden Pl,Portland,OR,97229,810000,3,2.5,"Portland West, Raleigh Hills",2857,6098,2001,,284,185,Sold,,,https://www.redfin.com/OR/Portland/2519-NW-Marsden-Pl-97229/home/25850195,RMLS,21245783,N,Y,45.5407888,-122.7778771
PAST SALE,May-19-2021,Townhouse,4656 NW Huserik Dr,Portland,OR,97229,477000,2,2.5,NW Washington Co or Sauvie Island,1697,3920,1998,,281,272,Sold,,,https://www.redfin.com/OR/Portland/4656-NW-Huserik-Dr-97229/home/26667010,RMLS,21302043,N,Y,45.5534109,-122.830431
PAST SALE,February-19-2021,Single Family Residential,3817 NE Mallory Ave,Portland,OR,97212,645000,3,1.5,BOISE ELIOT,2190,4791,1913,,295,,Sold,,,https://www.redfin.com/OR/Portland/3817-NE-Mallory-Ave-97212/home/26358524,RMLS,20327666,N,Y,45.5504006,-122.6639095
PAST SALE,June-24-2020,Single Family Residential,4604 NW Corazon Ter,Portland,OR,97229,555000,4,2.5,NW Washington Co or Sauvie Island,2630,3484,2004,,211,21,Sold,,,https://www.redfin.com/OR/Portland/4604-NW-Corazon-Ter-97229/home/25783711,RMLS,20535418,N,Y,45.5529,-122.8079984
PAST SALE,October-30-2020,Single Family Residential,8319 N Leonard St,Portland,OR,97203,485000,3,2.0,ST JOHNS,1008,4356,1980,,481,,Sold,,,https://www.redfin.com/OR/Portland/8319-N-Leonard-St-97203/home/26466051,RMLS,20256576,N,Y,45.5908272,-122.7513192
PAST SALE,January-25-2021,Single Family Residential,10324 SW 59th Pl,Portland,OR,97219,575000,3,2.5,"Portland West, Raleigh Hills",2530,7405,1985,,227,,Sold,,,https://www.redfin.com/OR/Portland/10324-SW-59th-Pl-97219/home/25849383,RMLS,20453781,N,Y,45.4510071,-122.7373055
PAST SALE,March-3-2021,Single Family Residential,2926 NE 66th Ave,Portland,OR,97213,550000,3,2.0,Portland Northeast,1831,4791,1925,,300,,Sold,,,https://www.redfin.com/OR/Portland/2926-NE-66th-Ave-97213/home/25812352,RMLS,20210424,N,Y,45.544082,-122.5950626
PAST SALE,March-9-2021,Single Family Residential,226 SE 53rd Ave,Portland,OR,97215,875000,5,4.0,Portland Southeast,3290,13068,1906,,266,,Sold,,,https://www.redfin.com/OR/Portland/226-SE-53rd-Ave-97215/home/26385410,RMLS,20596356,N,Y,45.5209337,-122.6084847
PAST SALE,April-30-2021,Single Family Residential,3807 SE 43rd Ave,Portland,OR,97206,515000,3,2.5,CRESTON-KENILWORTH,1600,2178,2010,,322,,Sold,,,https://www.redfin.com/OR/Portland/3807-SE-43rd-Ave-97206/home/25864096,RMLS,21226203,N,Y,45.4955343,-122.6182964
PAST SALE,February-5-2021,Single Family Residential,6027 N Minnesota Ave,Portland,OR,97217,560000,7,2.0,Portland North,2088,6534,1924,,268,,Sold,,,https://www.redfin.com/OR/Portland/6027-N-Minnesota-Ave-97217/home/26638117,RMLS,20268852,N,Y,45.5668622,-122.6794364
PAST SALE,June-17-2021,Single Family Residential,8027 SE 6th Ave,Portland,OR,97202,707000,3,2.5,SELLWOOD,2059,1306,2016,,343,,Sold,,,https://www.redfin.com/OR/Portland/8027-SE-6th-Ave-97202/home/69096471,RMLS,21443315,N,Y,45.4653494,-122.660226
PAST SALE,October-8-2021,Single Family Residential,14747 SE Bush St,Portland,OR,97236,245500,3,1.0,Portland Southeast,1999,11761,1949,,123,,Sold,,,https://www.redfin.com/OR/Portland/14747-SE-Bush-St-97236/home/26325274,RMLS,21104996,N,Y,45.4952719,-122.5110111
PAST SALE,June-17-2021,Single Family Residential,1911 SW Marigold St,Portland,OR,97219,506000,4,2.0,"Portland West, Raleigh Hills",1466,10018,1950,,345,,Sold,,,https://www.redfin.com/OR/Portland/1911-SW-Marigold-St-97219/home/26438446,RMLS,21562977,N,Y,45.4606873,-122.6975785
PAST SALE,June-4-2020,Single Family Residential,5542 SE 130th Ave,Portland,OR,97236,370000,3,2.0,Portland Southeast,1151,4791,2001,,321,,Sold,,,https://www.redfin.com/OR/Portland/5542-SE-130th-Ave-97236/home/26564489,RMLS,20693935,N,Y,45.4824813,-122.5286167
PAST SALE,September-8-2021,Single Family Residential,8436 SE Lafayette St,Portland,OR,97266,365000,3,1.0,Portland Southeast,1232,5662,1946,,296,,Sold,,,https://www.redfin.com/OR/Portland/8436-SE-Lafayette-St-97266/home/25852743,RMLS,21327120,N,Y,45.4960228,-122.5756749
PAST SALE,August-27-2021,Single Family Residential,9616 N Portsmouth Ave,Portland,OR,97203,400000,2,1.0,Portland North,750,4791,1952,,533,,Sold,,,https://www.redfin.com/OR/Portland/9616-N-Portsmouth-Ave-97203/home/26427046,RMLS,21272743,N,Y,45.5921688,-122.7207485
PAST SALE,October-5-2021,Single Family Residential,7404 N Omaha Ave,Portland,OR,97217,475000,2,2.0,ARBOR LODGE,1632,4791,1912,,291,,Sold,,,https://www.redfin.com/OR/Portland/7404-N-Omaha-Ave-97217/home/26508445,RMLS,21061327,N,Y,45.5765184,-122.6901252
PAST SALE,April-30-2021,Single Family Residential,14126 SE Salmon St,Portland,OR,97233,410000,4,2.0,Portland Southeast,2016,7405,1959,,203,,Sold,,,https://www.redfin.com/OR/Portland/14126-SE-Salmon-St-97233/home/26420519,RMLS,21253511,N,Y,45.5144626,-122.5178806
PAST SALE,May-15-2020,Single Family Residential,6225 SE 51st Ave,Portland,OR,97206,392000,2,1.0,WOODSTOCK,1100,4791,1958,,356,,Sold,,,https://www.redfin.com/OR/Portland/6225-SE-51st-Ave-97206/home/26411728,RMLS,20646143,N,Y,45.477295,-122.6103829
PAST SALE,February-25-2021,Single Family Residential,4522 SE Lincoln St,Portland,OR,97215,601000,3,2.0,Richmond,2080,4791,1926,,289,,Sold,,,https://www.redfin.com/OR/Portland/4522-SE-Lincoln-St-97215/home/26558057,RMLS,20300877,N,Y,45.5078414,-122.6156381
PAST SALE,August-31-2020,Single Family Residential,10247 N Oswego Ave,Portland,OR,97203,425000,3,1.0,ST JOHNS,1116,10890,1955,,381,,Sold,,,https://www.redfin.com/OR/Portland/10247-N-Oswego-Ave-97203/home/26413375,RMLS,20097666,N,Y,45.5996739,-122.7445558
PAST SALE,May-29-2020,Single Family Residential,5527 SE Oetkin Dr,Milwaukie,OR,97267,499000,3,3.0,"Milwaukie, Gladstone, Happy Valley, Clckmas, Dmscus, Estacada",2508,24393,1974,,199,,Sold,,,https://www.redfin.com/OR/Milwaukie/5527-SE-Oetkin-Dr-97267/home/26053583,RMLS,20378432,N,Y,45.4115531,-122.6076323
PAST SALE,May-22-2020,Single Family Residential,3141 SE 90th Pl,Portland,OR,97266,370000,2,2.0,Portland Southeast,2316,5662,1926,,160,,Sold,,,https://www.redfin.com/OR/Portland/3141-SE-90th-Pl-97266/home/25776142,RMLS,20390525,N,Y,45.4993002,-122.570611
PAST SALE,November-17-2020,Single Family Residential,8109 SE Knight St,Portland,OR,97206,355000,3,1.0,Portland Southeast,1487,4791,1911,,239,,Sold,,,https://www.redfin.com/OR/Portland/8109-SE-Knight-St-97206/home/25844342,RMLS,20017206,N,Y,45.4804099,-122.5798417
PAST SALE,February-9-2021,Single Family Residential,2233 SE 43rd Ave,Portland,OR,97215,575000,2,1.0,RICHMOND,2160,3484,1914,,266,,Sold,,,https://www.redfin.com/OR/Portland/2233-SE-43rd-Ave-97215/home/26639377,RMLS,20613830,N,Y,45.5070477,-122.6183759
PAST SALE,October-21-2020,Condo/Co-op,4609 NE 118th Ave,Portland,OR,97220,280000,3,2.5,Portland Northeast,1376,,2005,,203,160,Sold,,,https://www.redfin.com/OR/Portland/4609-NE-118th-Ave-97220/unit-7/home/26577610,RMLS,20303294,N,Y,45.5564079,-122.5418556
PAST SALE,December-23-2020,Single Family Residential,9195 NW Stark Ct,Portland,OR,97229,560000,5,3.0,NW Washington Co or Sauvie Island,2601,13068,1957,,215,,Sold,,,https://www.redfin.com/OR/Portland/9195-NW-Stark-Ct-97229/home/25777359,RMLS,20090223,N,Y,45.5203136,-122.771518
PAST SALE,December-14-2020,Single Family Residential,7941 SE 36th Ave,Portland,OR,97202,830000,4,2.5,EASTMORELAND,2656,6098,1925,,313,,Sold,,,https://www.redfin.com/OR/Portland/7941-SE-36th-Ave-97202/home/26602269,RMLS,20557915,N,Y,45.4657339,-122.6265086
PAST SALE,July-22-2020,Condo/Co-op,908 SW Gaines St #22,Portland,OR,97239,239000,2,1.0,"Portland West, Raleigh Hills",842,,1960,,284,523,Sold,,,https://www.redfin.com/OR/Portland/908-SW-Gaines-St-97239/unit-22/home/25758545,RMLS,20018162,N,Y,45.4965754,-122.6897813
PAST SALE,July-31-2020,Single Family Residential,13654 SE Bush St,Portland,OR,97236,325000,3,1.5,Portland Southeast,1794,5227,1941,,181,,Sold,,,https://www.redfin.com/OR/Portland/13654-SE-Bush-St-97236/home/26590072,RMLS,20467435,N,Y,45.4949022,-122.5223412
PAST SALE,October-30-2020,Single Family Residential,6236 N Denver Ave,Portland,OR,97217,600000,3,3.0,ARBOR LODGE,2874,8276,1923,,209,,Sold,,,https://www.redfin.com/OR/Portland/6236-N-Denver-Ave-97217/home/26624981,RMLS,20528683,N,Y,45.5680361,-122.687193
PAST SALE,October-9-2020,Single Family Residential,8416 SE 146th Pl,Portland,OR,97236,555000,5,3.5,Portland Southeast,3954,7405,2007,,140,38,Sold,,,https://www.redfin.com/OR/Portland/8416-SE-146th-Pl-97236/home/25749993,RMLS,20504545,N,Y,45.4623656,-122.5122158
PAST SALE,December-16-2020,Single Family Residential,10906 SW 59th Ave,Portland,OR,97219,420000,3,1.0,"Portland West, Raleigh Hills",1008,8276,1960,,417,,Sold,,,https://www.redfin.com/OR/Portland/10906-SW-59th-Ave-97219/home/26489380,RMLS,20566063,N,Y,45.4467256,-122.7374711
PAST SALE,December-16-2020,Condo/Co-op,344 NE Morgan St,Portland,OR,97211,317000,3,2.5,Portland Northeast,1281,,2008,,247,276,Sold,,,https://www.redfin.com/OR/Portland/344-NE-Morgan-St-97211/unit-11-2/home/26451754,RMLS,20606805,N,Y,45.5742825,-122.6617904
PAST SALE,November-20-2020,Single Family Residential,2811 SE 35th Pl,Portland,OR,97202,622000,3,1.0,Portland Southeast,2132,5662,1892,,292,,Sold,,,https://www.redfin.com/OR/Portland/2811-SE-35th-Pl-97202/home/26553849,RMLS,20513692,N,Y,45.5024286,-122.6275487
PAST SALE,September-3-2020,Single Family Residential,3256 SE Evergreen Ave,Milwaukie,OR,97222,478000,3,3.0,"Milwaukie, Gladstone, Happy Valley, Clckmas, Dmscus, Estacada",1915,10890,1978,,250,,Sold,,,https://www.redfin.com/OR/Milwaukie/3256-SE-Evergreen-Ave-97222/home/26034708,RMLS,20688930,N,Y,45.4283568,-122.6300001
PAST SALE,May-27-2021,Single Family Residential,5314 NE 32nd Pl,Portland,OR,97211,575000,2,1.5,CONCORDIA,1560,4791,1928,,369,,Sold,,,https://www.redfin.com/OR/Portland/5314-NE-32nd-Pl-97211/home/26491455,RMLS,21107463,N,Y,45.5617856,-122.6314768
PAST SALE,September-30-2020,Townhouse,1612 SE Clatsop St,Portland,OR,97202,687000,3,2.5,Portland Southeast,2440,2613,2016,,282,,Sold,,,https://www.redfin.com/OR/Portland/1612-SE-Clatsop-St-97202/home/101096363,RMLS,20096220,N,Y,45.4606044,-122.6486176
PAST SALE,October-28-2020,Single Family Residential,9517 SW 53rd Ave,Portland,OR,97219,464900,4,2.5,"Portland West, Raleigh Hills",1813,4791,1990,,256,,Sold,,,https://www.redfin.com/OR/Portland/9517-SW-53rd-Ave-97219/home/26513065,RMLS,20637898,N,Y,45.4565528,-122.7316747
PAST SALE,March-22-2021,Single Family Residential,6180 NE 8th Ave,Portland,OR,97211,605000,3,3.5,Portland Northeast,2033,1742,2019,,298,,Sold,,,https://www.redfin.com/OR/Portland/6180-NE-8th-Ave-97211/home/170024344,RMLS,21142393,N,Y,45.5675753,-122.6570628
PAST SALE,July-12-2021,Single Family Residential,4407 SE 75th Ave,Portland,OR,97206,485000,3,1.0,Portland Southeast,960,6098,1955,,505,,Sold,,,https://www.redfin.com/OR/Portland/4407-SE-75th-Ave-97206/home/26303743,RMLS,21215171,N,Y,45.4908885,-122.5860926
PAST SALE,August-31-2020,Single Family Residential,7493 NW Tanoak Ter,Portland,OR,97229,450000,3,2.5,NW Washington Co or Sauvie Island,1724,3049,2015,,261,50,Sold,,,https://www.redfin.com/OR/Portland/7493-NW-Tanoak-Ter-97229/home/112775579,RMLS,20416648,N,Y,45.5739076,-122.8493539
PAST SALE,October-13-2020,Single Family Residential,5521 SE Ogden St,Portland,OR,97206,435000,5,2.0,Portland Southeast,1944,4791,1951,,224,,Sold,,,https://www.redfin.com/OR/Portland/5521-SE-Ogden-St-97206/home/26549419,RMLS,20549445,N,Y,45.4712959,-122.6061733
PAST SALE,August-13-2021,Condo/Co-op,7520 SE Milwaukie Ave #208,Portland,OR,97202,435000,2,2.5,WESTMORELAND/SELLWOOD,1072,,2009,,406,291,Sold,,,https://www.redfin.com/OR/Portland/7520-SE-Milwaukie-Ave-97202/unit-208/home/25851292,RMLS,21490359,N,Y,45.4705222,-122.6482274
PAST SALE,September-30-2021,Single Family Residential,16212 SW Oneill Ct,Portland,OR,97223,795000,6,3.5,"Beaverton, Aloha",3525,13068,1996,,226,,Sold,,,https://www.redfin.com/OR/Portland/16212-SW-Oneill-Ct-97223/home/26685886,RMLS,21011086,N,Y,45.4261551,-122.8435976
PAST SALE,August-5-2021,Condo/Co-op,7302 N New York Ave #7,Portland,OR,97203,188500,1,1.0,Portland North,520,,1959,,363,318,Sold,,,https://www.redfin.com/OR/Portland/7302-N-New-York-Ave-97203/unit-7/home/26448076,RMLS,21287912,N,Y,45.5918044,-122.7573091
PAST SALE,June-21-2021,Single Family Residential,2680 SW Maple Ln,Portland,OR,97225,1100000,3,2.5,"Portland West, Raleigh Hills",3137,14810,1938,,351,,Sold,,,https://www.redfin.com/OR/Portland/2680-SW-Maple-Ln-97225/home/26639100,RMLS,21375579,N,Y,45.5003583,-122.7504133
PAST SALE,July-22-2021,Single Family Residential,5134 NE 15th Ave,Portland,OR,97211,636000,3,2.5,Portland Northeast,1752,,2018,,363,,Sold,,,https://www.redfin.com/OR/Portland/5134-NE-15th-Ave-97211/home/26517647,RMLS,21249430,N,Y,45.5601831,-122.6494851
PAST SALE,September-24-2021,Single Family Residential,11669 NW Vallevue Ct,Portland,OR,97229,825000,4,2.5,NW Washington Co or Sauvie Island,2697,10890,1979,,306,,Sold,,,https://www.redfin.com/OR/Portland/11669-NW-Vallevue-Ct-97229/home/26639940,RMLS,21416235,N,Y,45.5321009,-122.7971903
PAST SALE,October-25-2021,Single Family Residential,8962 N Courtenay Ave,Portland,OR,97203,480000,3,2.0,Portland North,1312,3484,2014,,366,,Sold,,,https://www.redfin.com/OR/Portland/8962-N-Courtenay-Ave-97203/home/26396018,RMLS,21274701,N,Y,45.5874944,-122.7191198
PAST SALE,October-25-2021,Townhouse,4144 N Commercial Ave,Portland,OR,97217,475000,3,2.0,BOISE,1570,2613,2000,,303,,Sold,,,https://www.redfin.com/OR/Portland/4144-N-Commercial-Ave-97217/home/26606418,RMLS,21073773,N,Y,45.5539157,-122.6708715
PAST SALE,November-30-2020,Single Family Residential,10843 SE Schiller St,Portland,OR,97266,350000,2,2.0,HOLGATE,1508,12196,1925,,232,,Sold,,,https://www.redfin.com/OR/Portland/10843-SE-Schiller-St-97266/home/26412399,RMLS,20237852,N,Y,45.4874466,-122.5516349
PAST SALE,May-4-2021,Single Family Residential,7125 N Seward Ave,Portland,OR,97217,716000,3,2.0,ARBOR LODGE/OVERLOOK,2371,4791,1926,,302,,Sold,,,https://www.redfin.com/OR/Portland/7125-N-Seward-Ave-97217/home/25777971,RMLS,21219252,N,Y,45.5750289,-122.704129
PAST SALE,December-8-2020,Single Family Residential,13151 NW Alvada St,Portland,OR,97229,799900,5,3.0,NW Washington Co or Sauvie Island,3270,5662,2009,,245,143,Sold,,,https://www.redfin.com/OR/Portland/13151-NW-Alvada-St-97229/home/26737101,RMLS,20186093,N,Y,45.5564674,-122.8123856
PAST SALE,October-7-2020,Single Family Residential,4332 SW Lobelia St,Portland,OR,97219,707500,4,3.0,MULTNOMAH VILLAGE AREA,3048,8276,1928,,232,,Sold,,,https://www.redfin.com/OR/Portland/4332-SW-Lobelia-St-97219/home/26537238,RMLS,20126422,N,Y,45.4611743,-122.7220184
PAST SALE,October-9-2020,Single Family Residential,7409 SE Bybee Blvd,Portland,OR,97206,440000,3,2.0,BRENTWOOD-DARLINGTON,1814,6098,1921,,243,,Sold,,,https://www.redfin.com/OR/Portland/7409-SE-Bybee-Blvd-97206/home/26513358,RMLS,20638290,N,Y,45.4725432,-122.5872546
PAST SALE,September-23-2020,Single Family Residential,9804 N Hudson St,Portland,OR,97203,445000,3,1.0,Portland North,980,5227,1970,,454,,Sold,,,https://www.redfin.com/OR/Portland/9804-N-Hudson-St-97203/home/26459644,RMLS,20023998,N,Y,45.5984532,-122.7582156
PAST SALE,April-9-2021,Single Family Residential,74 NE Ivy St,Portland,OR,97212,710000,4,3.0,Portland Northeast,2384,4791,1900,,298,,Sold,,,https://www.redfin.com/OR/Portland/74-NE-Ivy-St-97212/home/26598271,RMLS,21160643,N,Y,45.5473292,-122.664672
PAST SALE,May-3-2021,Single Family Residential,2828 SE 58th Ave,Portland,OR,97206,546500,2,1.5,SOUTH TABOR,1423,5227,1942,,384,,Sold,,,https://www.redfin.com/OR/Portland/2828-SE-58th-Ave-97206/home/26491187,RMLS,21644592,N,Y,45.5020113,-122.6027956
PAST SALE,March-10-2021,Single Family Residential,4008 SE 99th Ave,Portland,OR,97266,445000,4,2.5,LENTS/POWELLHURST-GILBERT,1958,3920,2010,,227,,Sold,,,https://www.redfin.com/OR/Portland/4008-SE-99th-Ave-97266/home/25859062,RMLS,21606490,N,Y,45.4926269,-122.5615035
PAST SALE,October-29-2021,Single Family Residential,3002 SE 65th Ave,Portland,OR,97206,576000,3,1.0,Portland Southeast,1986,5227,1949,,290,,Sold,,,https://www.redfin.com/OR/Portland/3002-SE-65th-Ave-97206/home/26359024,RMLS,21228751,N,Y,45.5007174,-122.5963442
PAST SALE,June-9-2021,Single Family Residential,8502 SE 141st Ave,Portland,OR,97236,588000,4,2.5,Starpointe,2639,7840,2004,,223,16,Sold,,,https://www.redfin.com/OR/Portland/8502-SE-141st-Ave-97236/home/25746877,RMLS,21418815,N,Y,45.4620288,-122.5176468
PAST SALE,September-4-2020,Single Family Residential,1817 NE 38th Ave,Portland,OR,97212,887600,5,4.0,GRANT PARK/HOLLYWOOD,2652,,1914,,335,,Sold,,,https://www.redfin.com/OR/Portland/1817-NE-38th-Ave-97212/home/26329113,RMLS,20648928,N,Y,45.5360903,-122.6242584
PAST SALE,March-25-2021,Single Family Residential,1837 N Emerson St,Portland,OR,97217,487500,3,1.5,OVERLOOK,936,4791,1959,,521,,Sold,,,https://www.redfin.com/OR/Portland/1837-N-Emerson-St-97217/home/26327680,RMLS,21375722,N,Y,45.561501,-122.686404
PAST SALE,October-14-2020,Single Family Residential,5636 N Maryland Ave,Portland,OR,97217,580000,3,2.0,OVERLOOK,2258,4791,1909,,257,,Sold,,,https://www.redfin.com/OR/Portland/5636-N-Maryland-Ave-97217/home/26562427,RMLS,20495465,N,Y,45.5639196,-122.6809154
PAST SALE,September-23-2020,Single Family Residential,6429 SW 36th Ave,Portland,OR,97221,665000,5,3.5,"Portland West, Raleigh Hills",3317,10018,1928,,200,,Sold,,,https://www.redfin.com/OR/Portland/6429-SW-36th-Ave-97221/home/26595631,RMLS,20275941,N,Y,45.4775824,-122.71453
PAST SALE,May-19-2021,Single Family Residential,10939 NE Sacramento St,Portland,OR,97220,512400,3,2.0,Portland Northeast,1608,5662,1951,,319,,Sold,,,https://www.redfin.com/OR/Portland/10939-NE-Sacramento-St-97220/home/26625672,RMLS,21010761,N,Y,45.5396978,-122.549869
PAST SALE,October-6-2021,Single Family Residential,604 SW Arboretum Cir,Portland,OR,97221,727900,3,2.0,"Portland West, Raleigh Hills",2102,6534,1982,,346,74,Sold,,,https://www.redfin.com/OR/Portland/604-SW-Arboretum-Cir-97221/home/26612727,RMLS,21472840,N,Y,45.5188498,-122.7222946
PAST SALE,August-6-2021,Single Family Residential,3255 NE 75th Ave,Portland,OR,97213,572900,3,1.0,Portland Northeast,1540,,1910,,372,,Sold,,,https://www.redfin.com/OR/Portland/3255-NE-75th-Ave-97213/home/26534748,RMLS,21433391,N,Y,45.5462223,-122.5861795
PAST SALE,January-8-2021,Single Family Residential,11822 SE Cora St,Portland,OR,97266,430000,3,3.0,Portland Southeast,1038,6969,1980,,414,,Sold,,,https://www.redfin.com/OR/Portland/11822-SE-Cora-St-97266/home/25799759,RMLS,20478668,N,Y,45.4910167,-122.5413458
PAST SALE,,Single Family Residential,3227 NE 156th Ave,Portland,OR,97230,410000,3,2.0,,2024,8056,1979,,203,,,,,https://www.redfin.com/OR/Portland/3227-NE-156th-Ave-97230/home/26549722,,,N,Y,45.5465877,-122.5022957
PAST SALE,June-30-2021,Single Family Residential,1432 SE Yukon St,Portland,OR,97202,840000,4,2.0,Portland Southeast,2688,4791,1929,,313,,Sold,,,https://www.redfin.com/OR/Portland/1432-SE-Yukon-St-97202/home/26322587,RMLS,21259660,N,Y,45.4791704,-122.6509438
PAST SALE,January-11-2021,Single Family Residential,7818 SE Tolman St,Portland,OR,97206,360000,3,1.0,Portland Southeast,1200,4791,1953,,300,,Sold,,,https://www.redfin.com/OR/Portland/7818-SE-Tolman-St-97206/home/26651358,RMLS,20358098,N,Y,45.4773677,-122.5828136
PAST SALE,October-19-2021,Single Family Residential,1702 NE 116th Pl,Portland,OR,97220,428418,3,1.5,PARKROSE HEIGHTS,2349,8712,1955,,182,,Sold,,,https://www.redfin.com/OR/Portland/1702-NE-116th-Pl-97220/home/26579687,RMLS,21409864,N,Y,45.5348966,-122.5430317
PAST SALE,November-4-2021,Single Family Residential,3826 SE Liebe St,Portland,OR,97202,585000,4,3.0,Portland Southeast,2400,4791,1912,,244,,Sold,,,https://www.redfin.com/OR/Portland/3826-SE-Liebe-St-97202/home/25817515,RMLS,21420813,N,Y,45.4872864,-122.6230308
PAST SALE,July-23-2021,Single Family Residential,3930 SE 146th Ave,Portland,OR,97236,435000,4,2.5,Portland Southeast,1680,7405,1972,,259,,Sold,,,https://www.redfin.com/OR/Portland/3930-SE-146th-Ave-97236/home/26314648,RMLS,21540790,N,Y,45.4937448,-122.5124559
PAST SALE,October-29-2021,Single Family Residential,14674 SW Mulberry Dr,Portland,OR,97224,635000,4,2.5,Autumn View,2403,6969,2012,,264,28,Sold,,,https://www.redfin.com/OR/Portland/14674-SW-Mulberry-Dr-97224/home/26736721,RMLS,21129966,N,Y,45.4023418,-122.8281532
PAST SALE,June-25-2021,Single Family Residential,4227 NE 6th Ave,Portland,OR,97211,480000,3,1.0,Portland Northeast,1344,2178,1890,,357,,Sold,,,https://www.redfin.com/OR/Portland/4227-NE-6th-Ave-97211/home/25740118,RMLS,21162210,N,Y,45.55428,-122.6597806
PAST SALE,September-21-2021,Single Family Residential,8401 SE 92nd Ave,Portland,OR,97266,425000,5,2.0,Portland Southeast,2230,11761,1947,,191,,Sold,,,https://www.redfin.com/OR/Portland/8401-SE-92nd-Ave-97266/home/26512790,RMLS,21193477,N,Y,45.4627153,-122.568966
PAST SALE,May-15-2020,Single Family Residential,5011 SW Orchid St,Portland,OR,97219,435000,3,2.0,"Portland West, Raleigh Hills",1677,4791,1973,,259,,Sold,,,https://www.redfin.com/OR/Portland/5011-SW-Orchid-St-97219/home/25849538,RMLS,20573452,N,Y,45.4591176,-122.7288039
PAST SALE,June-4-2021,Single Family Residential,13026 SE Ellis St,Portland,OR,97236,450000,4,2.5,POWELLHURST - GILBERT,1993,4791,2001,,226,,Sold,,,https://www.redfin.com/OR/Portland/13026-SE-Ellis-St-97236/home/26346443,RMLS,21433943,N,Y,45.4821634,-122.5280698
PAST SALE,June-4-2021,Single Family Residential,735 SW Caldew Dr,Portland,OR,97219,500000,3,2.5,HILLSDALE/BURLINGAME,1580,7840,1993,,316,,Sold,,,https://www.redfin.com/OR/Portland/735-SW-Caldew-Dr-97219/home/26466962,RMLS,21434852,N,Y,45.4721961,-122.6862761
PAST SALE,May-14-2021,Single Family Residential,3946 SE 51st Ave,Portland,OR,97206,571000,3,2.5,CRESTON - KENILWORTH,1338,6098,2001,,427,,Sold,,,https://www.redfin.com/OR/Portland/3946-SE-51st-Ave-97206/home/26371141,RMLS,21053300,N,Y,45.4940414,-122.6098719
PAST SALE,March-5-2021,Townhouse,8945 NE Everett St,Portland,OR,97220,505000,3,2.5,Portland Northeast,1668,2613,2017,,303,,Sold,,,https://www.redfin.com/OR/Portland/8945-NE-Everett-St-97220/home/108468197,RMLS,21467596,N,Y,45.5251132,-122.5715978
PAST SALE,September-11-2020,Single Family Residential,10008 SW 60th Ave,Portland,OR,97219,526000,3,1.5,ASHCREEK/MULTNOMAH VILLAGE,1772,10454,1952,,297,,Sold,,,https://www.redfin.com/OR/Portland/10008-SW-60th-Ave-97219/home/26403273,RMLS,20066295,N,Y,45.4532208,-122.7377948
PAST SALE,August-7-2020,Single Family Residential,6400 NW Cornell Rd,Portland,OR,97210,445000,4,2.0,"Portland West, Raleigh Hills",2180,88862,1936,,204,,Sold,,,https://www.redfin.com/OR/Portland/6400-NW-Cornell-Rd-97210/home/26429710,RMLS,20371578,N,Y,45.5343558,-122.7442923
PAST SALE,December-11-2020,Single Family Residential,2506 NE 60th Ave,Portland,OR,97213,630000,5,2.0,ROSE CITY PARK,2248,4791,1924,,280,,Sold,,,https://www.redfin.com/OR/Portland/2506-NE-60th-Ave-97213/home/26303480,RMLS,20507477,N,Y,45.541131,-122.6012084
PAST SALE,December-18-2020,Single Family Residential,5304 NE 15th Ave,Portland,OR,97211,859900,4,3.5,VERNON,3033,3484,2018,,284,,Sold,,,https://www.redfin.com/OR/Portland/5304-NE-15th-Ave-97211/unit-A/home/145166484,RMLS,20418776,N,Y,45.5616726,-122.649425
PAST SALE,July-8-2020,Single Family Residential,6309 SE Pine Creek Way,Milwaukie,OR,97267,420000,3,2.0,"Milwaukie, Gladstone, Happy Valley, Clckmas, Dmscus, Estacada",1733,10890,1966,,242,,Sold,,,https://www.redfin.com/OR/Milwaukie/6309-SE-Pine-Creek-Way-97267/home/25925505,RMLS,20116574,N,Y,45.4199852,-122.5985053
PAST SALE,July-10-2020,Single Family Residential,9615 SW 42nd Ave,Portland,OR,97219,410000,2,1.0,"Portland West, Raleigh Hills",1548,10018,1921,,265,,Sold,,,https://www.redfin.com/OR/Portland/9615-SW-42nd-Ave-97219/home/26581724,RMLS,20085998,N,Y,45.4558133,-122.7203032
PAST SALE,January-14-2021,Single Family Residential,351 NE 74th Ave,Portland,OR,97213,440000,2,1.0,MT. TABOR VILLA,2124,4791,1904,,207,,Sold,,,https://www.redfin.com/OR/Portland/351-NE-74th-Ave-97213/home/26320836,RMLS,20193281,N,Y,45.5254036,-122.5870438
PAST SALE,October-13-2020,Single Family Residential,828 N Webster St,Portland,OR,97217,565000,3,2.5,Portland North,2364,4791,1942,,239,,Sold,,,https://www.redfin.com/OR/Portland/828-N-Webster-St-97217/home/26538968,RMLS,20144149,N,Y,45.5595418,-122.675582
PAST SALE,February-22-2021,Single Family Residential,3205 NE 64th Ave,Portland,OR,97213,570000,3,2.0,Portland Northeast,2006,4791,1912,,284,,Sold,,,https://www.redfin.com/OR/Portland/3205-NE-64th-Ave-97213/home/26551837,RMLS,20112463,N,Y,45.5461983,-122.5976987
PAST SALE,July-7-2020,Single Family Residential,3125 SE Walta Vista Ct,Milwaukie,OR,97267,440000,3,2.0,"Milwaukie, Gladstone, Happy Valley, Clckmas, Dmscus, Estacada",1802,11761,1983,,244,,Sold,,,https://www.redfin.com/OR/Milwaukie/3125-SE-Walta-Vista-Ct-97267/home/25982518,RMLS,20003280,N,Y,45.3986097,-122.6309923
PAST SALE,December-1-2020,Single Family Residential,2011 NE 7th Ave,Portland,OR,97212,875000,4,3.5,IRVINGTON,2728,2613,2015,,321,,Sold,,,https://www.redfin.com/OR/Portland/2011-NE-7th-Ave-97212/home/26475706,RMLS,20154479,N,Y,45.5372223,-122.6588775
PAST SALE,May-8-2020,Single Family Residential,5107 NE 29th Ave,Portland,OR,97211,485000,2,2.0,ALBERTA ARTS,1954,3920,1914,,248,,Sold,,,https://www.redfin.com/OR/Portland/5107-NE-29th-Ave-97211/home/25848414,RMLS,20101159,N,Y,45.5597476,-122.6361733
PAST SALE,September-4-2020,Single Family Residential,5031 SE Kelly St,Portland,OR,97206,387300,2,1.0,Portland Southeast,1450,4356,1950,,267,,Sold,,,https://www.redfin.com/OR/Portland/5031-SE-Kelly-St-97206/home/26360226,RMLS,20232151,N,Y,45.4997921,-122.6105054
PAST SALE,June-19-2020,Single Family Residential,2930 SW West Point Ave,Portland,OR,97225,775000,5,4.5,"Portland West, Raleigh Hills",3881,13068,1972,,200,,Sold,,,https://www.redfin.com/OR/Portland/2930-SW-West-Point-Ave-97225/home/26698037,RMLS,20664321,N,Y,45.4989402,-122.7556534
PAST SALE,October-16-2020,Single Family Residential,1321 NE Liberty St,Portland,OR,97211,405750,2,1.0,Portland Northeast,728,4791,1952,,557,,Sold,,,https://www.redfin.com/OR/Portland/1321-NE-Liberty-St-97211/home/26543961,RMLS,20677247,N,Y,45.5706747,-122.6512403
PAST SALE,May-11-2020,Single Family Residential,12465 SW Foothill Dr,Portland,OR,97225,560000,4,2.5,"Portland West, Raleigh Hills",2281,9147,1958,,246,13,Sold,,,https://www.redfin.com/OR/Portland/12465-SW-Foothill-Dr-97225/home/26614159,RMLS,20116236,N,Y,45.5111683,-122.8048336
PAST SALE,September-8-2020,Single Family Residential,9909 N Leonard St,Portland,OR,97203,483000,4,2.0,Portland North,1940,6098,1935,,249,,Sold,,,https://www.redfin.com/OR/Portland/9909-N-Leonard-St-97203/home/26628345,RMLS,20313818,N,Y,45.598767,-122.7601855
PAST SALE,July-10-2020,Single Family Residential,3016 NE 57th Ave,Portland,OR,97213,500000,4,2.0,Portland Northeast,2431,5227,1927,,206,,Sold,,,https://www.redfin.com/OR/Portland/3016-NE-57th-Ave-97213/home/26463428,RMLS,20647066,N,Y,45.5448257,-122.6043055
PAST SALE,December-22-2020,Single Family Residential,3403 NE 32nd Pl,Portland,OR,97212,870000,3,3.0,Alameda/ Beaumont,2833,4791,1941,,307,,Sold,,,https://www.redfin.com/OR/Portland/3403-NE-32nd-Ave-97212/home/26334246,RMLS,20069933,N,Y,45.5475537,-122.6330368
PAST SALE,July-23-2020,Single Family Residential,14255 SE Ellis St,Portland,OR,97236,395000,4,2.5,Portland Southeast,2298,3484,2012,,172,,Sold,,,https://www.redfin.com/OR/Portland/14255-SE-Ellis-St-97236/home/40192106,RMLS,20658733,N,Y,45.482529,-122.5162425
PAST SALE,August-20-2020,Single Family Residential,115 NE 66th Ave,Portland,OR,97213,460000,3,2.5,Portland Northeast,1257,4791,1925,,366,,Sold,,,https://www.redfin.com/OR/Portland/115-NE-66th-Ave-97213/home/26510892,RMLS,20641119,N,Y,45.5238081,-122.5964056
PAST SALE,May-8-2020,Single Family Residential,2333 SE 98th Ave,Portland,OR,97216,357000,3,2.5,Portland Southeast,1804,4791,2002,,198,,Sold,,,https://www.redfin.com/OR/Portland/2333-SE-98th-Ave-97216/home/26532771,RMLS,19301416,N,Y,45.5055833,-122.5627038
PAST SALE,October-9-2020,Single Family Residential,18594 NE Multnomah Ter,Portland,OR,97230,380000,3,2.5,Portland Northeast,1629,2178,2015,,233,,Sold,,,https://www.redfin.com/OR/Portland/18594-NE-Multnomah-Ter-97230/home/49681271,RMLS,19050274,N,Y,45.530847,-122.4713231
PAST SALE,June-19-2020,Single Family Residential,14475 SE Carmichael Ct,Happy Valley,OR,97086,855300,6,3.5,"Milwaukie, Gladstone, Happy Valley, Clckmas, Dmscus, Estacada",4024,43995,1997,,213,,Sold,,,https://www.redfin.com/OR/Happy-Valley/14475-SE-Carmichael-Ct-97086/home/26014604,RMLS,20032129,N,Y,45.4569728,-122.5147303
PAST SALE,May-5-2020,Single Family Residential,5911 NE 28th Ave,Portland,OR,97211,635000,3,2.0,Concordia,2600,4791,1910,,244,,Sold,,,https://www.redfin.com/OR/Portland/5911-NE-28th-Ave-97211/home/26460317,RMLS,20440918,N,Y,45.5654942,-122.6373628
PAST SALE,December-31-2020,Townhouse,14753 SW Catalina Dr,Tigard,OR,97223,382000,3,2.5,"Tigard, Tualatin, Sherwood, Wilsonville",1490,3049,2000,,256,,Sold,,,https://www.redfin.com/OR/Tigard/14753-SW-Catalina-Dr-97223/home/25825652,RMLS,20683819,N,Y,45.424991,-122.82869
PAST SALE,August-28-2020,Townhouse,8830 SE Brooklyn St,Portland,OR,97266,330000,3,2.5,Portland Southeast,1496,2613,2007,,221,,Sold,,,https://www.redfin.com/OR/Portland/8830-SE-Brooklyn-St-97266/home/26605474,RMLS,20129439,N,Y,45.5003403,-122.5719242
PAST SALE,November-10-2020,Single Family Residential,16841 NW Saint Helens Rd,Portland,OR,97231,315000,4,2.0,NW Washington Co or Sauvie Island,1990,5662,1927,,158,,Sold,,,https://www.redfin.com/OR/Portland/16841-NW-St-Helens-Rd-97231/home/26493531,RMLS,20047916,N,Y,45.646284,-122.8429045
PAST SALE,April-7-2021,Single Family Residential,9318 N Allegheny Ave,Portland,OR,97203,520000,3,1.0,Portland North,1336,7405,1954,,389,,Sold,,,https://www.redfin.com/OR/Portland/9318-N-Allegheny-Ave-97203/home/25859249,RMLS,21275004,N,Y,45.5938017,-122.7447577
PAST SALE,September-22-2020,Single Family Residential,7053 NW Snowdrop Ter,Portland,OR,97229,500000,4,2.5,NW Washington Co or Sauvie Island,1900,3049,2016,,263,,Sold,,,https://www.redfin.com/OR/Portland/7053-NW-Snowdrop-Ter-97229/home/112776074,RMLS,20557744,N,Y,45.5706249,-122.8308012
PAST SALE,June-23-2020,Single Family Residential,5285 NE 72nd Ave,Portland,OR,97218,411000,3,1.5,Portland Northeast,2690,8276,1942,,153,,Sold,,,https://www.redfin.com/OR/Portland/5285-NE-72nd-Ave-97218/home/26322820,RMLS,20188799,N,Y,45.5615391,-122.5891821
PAST SALE,December-15-2020,Townhouse,12 NE Bridgeton Rd,Portland,OR,97211,425000,4,3.0,Portland Northeast,2516,2613,1999,,169,,Sold,,,https://www.redfin.com/OR/Portland/12-NE-Bridgeton-Rd-97211/home/26552375,RMLS,20286477,N,Y,45.602297,-122.665983
PAST SALE,,Single Family Residential,13724 NE Couch St,Portland,OR,97230,389000,,2.5,,1816,3508,2005,,214,,,,,https://www.redfin.com/OR/Portland/13724-NE-Couch-St-97230/home/26572183,,,N,Y,45.5237875,-122.521853
PAST SALE,September-20-2021,Single Family Residential,3004 SW Flower Ter,Portland,OR,97239,457600,2,1.0,HILLSDALE,1534,7840,1942,,298,,Sold,,,https://www.redfin.com/OR/Portland/3004-SW-Flower-Ter-97239/home/26606205,RMLS,21531393,N,Y,45.4827971,-122.7083945
PAST SALE,August-9-2021,Single Family Residential,4943 SE 104th Ave,Portland,OR,97266,395000,3,1.0,Portland Southeast,1800,7840,1930,,219,,Sold,,,https://www.redfin.com/OR/Portland/4943-SE-104th-Ave-97266/home/25735047,RMLS,21343903,N,Y,45.4859437,-122.5559907
PAST SALE,September-17-2020,Single Family Residential,9080 SW Washington Dr,Tigard,OR,97223,710000,3,3.0,"Tigard, Tualatin, Sherwood, Wilsonville",2462,27878,1968,,288,,Sold,,,https://www.redfin.com/OR/Tigard/9080-SW-Washington-Dr-97223/home/26660777,RMLS,20678224,N,Y,45.4543801,-122.765439
PAST SALE,July-16-2021,Single Family Residential,6632 N Syracuse St,Portland,OR,97203,600000,3,2.0,UNIVERSITY PARK,2662,14810,1953,,225,,Sold,,,https://www.redfin.com/OR/Portland/6632-N-Syracuse-St-97203/home/26337782,RMLS,21430991,N,Y,45.5832496,-122.7365915
PAST SALE,January-6-2021,Single Family Residential,4324 SW Fraser Ave,Portland,OR,97225,730000,4,3.0,"Portland West, Raleigh Hills",2732,10018,1957,,267,,Sold,,,https://www.redfin.com/OR/Portland/4324-SW-Fraser-Ave-97225/home/26696210,RMLS,20467364,N,Y,45.4916566,-122.7447557
PAST SALE,October-15-2020,Single Family Residential,14691 SW 163rd Ave,Tigard,OR,97224,570000,4,2.5,BULL MOUNTAIN,2581,5662,2007,,221,130,Sold,,,https://www.redfin.com/OR/Tigard/14691-SW-163rd-Ave-97224/home/26734430,RMLS,20105557,N,Y,45.4136501,-122.8448793
PAST SALE,October-4-2021,Single Family Residential,7114 NE Siskiyou St,Portland,OR,97213,380000,1,1.0,Portland Northeast,800,3484,1911,,475,,Sold,,,https://www.redfin.com/OR/Portland/7114-NE-Siskiyou-St-97213/home/25734125,RMLS,21086594,N,Y,45.5451294,-122.5895998
PAST SALE,July-2-2020,Single Family Residential,5021 SE Henry St,Portland,OR,97206,452397,3,2.0,Portland Southeast,1407,4791,1961,,322,,Sold,,,https://www.redfin.com/OR/Portland/5021-SE-Henry-St-97206/home/26571193,RMLS,20431206,N,Y,45.4765501,-122.6109156
PAST SALE,June-24-2020,Single Family Residential,4216 NE 22nd Ave,Portland,OR,97211,550000,3,2.0,Portland Northeast,1560,4791,1950,,353,,Sold,,,https://www.redfin.com/OR/Portland/4216-NE-22nd-Ave-97211/home/25837460,RMLS,20479407,N,Y,45.5539211,-122.6426839
PAST SALE,August-30-2021,Single Family Residential,6210 SE Duke St,Portland,OR,97206,505000,3,1.5,Portland Southeast,1360,4791,1926,,371,,Sold,,,https://www.redfin.com/OR/Portland/6210-SE-Duke-St-97206/home/25860356,RMLS,21441648,N,Y,45.4756358,-122.5992737
PAST SALE,May-21-2021,Condo/Co-op,9212 N Polk Ave Unit A,Portland,OR,97203,400000,2,1.5,ST JOHNS,1080,,2019,,370,50,Sold,,,https://www.redfin.com/OR/Portland/9212-N-Polk-Ave-97203/unit-A/home/144738553,RMLS,21625910,N,Y,45.592732,-122.743042
PAST SALE,July-2-2021,Single Family Residential,7936 N Wayland Ave,Portland,OR,97203,635000,4,2.5,PORTSMOUTH,1932,3920,2014,,329,,Sold,,,https://www.redfin.com/OR/Portland/7936-N-Wayland-Ave-97203/home/49682512,RMLS,21082253,N,Y,45.5813649,-122.71106
PAST SALE,October-19-2020,Single Family Residential,1805 NE 55th Ave,Portland,OR,97213,655000,3,2.0,Portland Northeast,2769,4791,1930,,237,,Sold,,,https://www.redfin.com/OR/Portland/1805-NE-55th-Ave-97213/home/26589852,RMLS,20593049,N,Y,45.535787,-122.6071261
PAST SALE,June-25-2021,Single Family Residential,7919 SE Clackamas Rd,Milwaukie,OR,97267,449900,3,2.0,"Milwaukie, Gladstone, Happy Valley, Clckmas, Dmscus, Estacada",1476,10890,1984,,305,,Sold,,,https://www.redfin.com/OR/Milwaukie/7919-SE-Clackamas-Rd-97267/home/26005191,RMLS,21673352,N,Y,45.4112676,-122.5820606
PAST SALE,July-2-2020,Single Family Residential,5474 Bay Creek Dr,Lake Oswego,OR,97035,720000,4,2.5,WESTLAKE,2322,6969,1991,,310,34,Sold,,,https://www.redfin.com/OR/Lake-Oswego/5474-Bay-Creek-Dr-97035/home/25790470,RMLS,20331065,N,Y,45.4326401,-122.7309829
PAST SALE,July-27-2020,Single Family Residential,12872 SW Buckfield Ln,King City,OR,97224,547000,4,3.0,CASTLE OAKS,2636,3920,2017,,208,,Sold,,,https://www.redfin.com/OR/King-City/12872-SW-Buckfield-Ln-97224/home/112840012,RMLS,20020737,N,Y,45.399938,-122.8095199
PAST SALE,December-28-2020,Single Family Residential,1817 SE Umatilla St,Portland,OR,97202,540500,3,2.0,SELLWOOD,1999,4791,1960,,270,,Sold,,,https://www.redfin.com/OR/Portland/1817-SE-Umatilla-St-97202/home/26520538,RMLS,20478253,N,Y,45.4630971,-122.6456388
PAST SALE,June-17-2021,Single Family Residential,14575 SW 163rd Ave,Portland,OR,97224,636000,4,3.0,"Tigard, Tualatin, Sherwood, Wilsonville",2249,6098,2006,,283,135,Sold,,,https://www.redfin.com/OR/Portland/14575-SW-163rd-Ave-97224/home/26671047,RMLS,21388941,N,Y,45.4144368,-122.8447949
PAST SALE,August-2-2021,Single Family Residential,9510 SW 82nd Ave,Portland,OR,97223,880000,6,5.0,"Tigard, Tualatin, Sherwood, Wilsonville",4105,23086,1925,,214,,Sold,,,https://www.redfin.com/OR/Tigard/9510-SW-82nd-Ave-97223/home/26595926,RMLS,21623195,N,Y,45.4512894,-122.7610702
PAST SALE,September-23-2021,Single Family Residential,9645 SW Ventura Ct,Tigard,OR,97223,651000,4,2.5,"Tigard, Tualatin, Sherwood, Wilsonville",2558,8712,1978,,254,,Sold,,,https://www.redfin.com/OR/Tigard/9645-SW-Ventura-Ct-97223/home/26675553,RMLS,21133246,N,Y,45.4501727,-122.7458396
PAST SALE,May-10-2021,Single Family Residential,9216 N Central St,Portland,OR,97203,591000,4,2.0,ST. JOHNS/PIER PARK,2146,4791,1947,,275,,Sold,,,https://www.redfin.com/OR/Portland/9216-N-Central-St-97203/home/25827644,RMLS,21243715,N,Y,45.5946238,-122.7564186
PAST SALE,September-20-2021,Single Family Residential,4290 SW Melville Ave,Portland,OR,97239,540000,2,1.0,"Portland West, Raleigh Hills",986,,1965,,548,,Sold,,,https://www.redfin.com/OR/Portland/4290-SW-Melville-Ave-97239/home/26396074,RMLS,21683776,N,Y,45.4925506,-122.7041153
PAST SALE,October-14-2021,Single Family Residential,728 SE Fairwinds Loop,Vancouver,WA,98661,390000,3,2.0,Columbia Shores,1368,347242,2001,,285,336,Sold,,,https://www.redfin.com/WA/Vancouver/728-SE-Fairwinds-Loop-98661/home/14604606,NWMLS,1835543,N,Y,45.6159217,-122.6529194
PAST SALE,April-9-2021,Single Family Residential,2015 NE Blue Heron Dr,Portland,OR,97211,495000,3,2.0,Portland Northeast,1806,8276,2000,,274,,Sold,,,https://www.redfin.com/OR/Portland/2015-NE-Blue-Heron-Dr-97211/home/26439367,RMLS,21439385,N,Y,45.5901296,-122.6452213
PAST SALE,June-1-2021,Single Family Residential,5023 NE 27th Ave,Portland,OR,97211,530000,2,1.0,ALBERTA ARTS,791,3920,1954,,670,,Sold,,,https://www.redfin.com/OR/Portland/5023-NE-27th-Ave-97211/home/26596549,RMLS,21349351,N,Y,45.5595107,-122.6380691
PAST SALE,July-16-2021,Single Family Residential,5804 NE 22nd Ave,Portland,OR,97211,716000,4,1.5,Portland Northeast,2818,4791,1931,,254,,Sold,,,https://www.redfin.com/OR/Portland/5804-NE-22nd-Ave-97211/home/26363252,RMLS,21052565,N,Y,45.5646153,-122.6431905
PAST SALE,June-1-2020,Single Family Residential,7415 N Wayland Ave,Portland,OR,97203,585000,3,2.0,UNIVERSITY PARK,2478,5662,1944,,236,,Sold,,,https://www.redfin.com/OR/Portland/7415-N-Wayland-Ave-97203/home/26319083,RMLS,20031907,N,Y,45.5768282,-122.7113443
PAST SALE,July-13-2021,Single Family Residential,4125 N Colonial Ave,Portland,OR,97217,885000,5,2.5,Portland North,3384,4791,1913,,262,,Sold,,,https://www.redfin.com/OR/Portland/4125-N-Colonial-Ave-97217/home/26513737,RMLS,21115165,N,Y,45.5538404,-122.6843825
PAST SALE,May-5-2020,Single Family Residential,9033 SW 72nd Ave,Portland,OR,97223,624000,6,4.0,"Portland West, Raleigh Hills",3322,5662,2017,,188,25,Sold,,,https://www.redfin.com/OR/Portland/9033-SW-72nd-Ave-97223/home/130980421,RMLS,20280057,N,Y,45.4546615,-122.7512245
PAST SALE,November-4-2020,Single Family Residential,3946 N Missouri Ave,Portland,OR,97227,525000,3,1.0,MISSISSIPPI,1970,3049,1910,,266,,Sold,,,https://www.redfin.com/OR/Portland/3946-N-Missouri-Ave-97227/home/26666750,RMLS,20180326,N,Y,45.5516,-122.6773898
PAST SALE,February-17-2021,Single Family Residential,725 N Buffalo St,Portland,OR,97217,497000,3,2.5,Portland North,1599,2178,2010,,311,,Sold,,,https://www.redfin.com/OR/Portland/725-N-Buffalo-St-97217/home/25735652,RMLS,20595120,N,Y,45.5752408,-122.6743496
PAST SALE,May-24-2021,Single Family Residential,6033 N Gay Ave,Portland,OR,97217,755000,4,2.5,Portland North,2076,4791,2007,,364,,Sold,,,https://www.redfin.com/OR/Portland/6033-N-Gay-Ave-97217/home/25830763,RMLS,21082482,N,Y,45.566844,-122.6894983
PAST SALE,July-24-2020,Condo/Co-op,2829 SE Belmont St #104,Portland,OR,97214,229900,1,1.0,BELMONT,698,,1927,,329,450,Sold,,,https://www.redfin.com/OR/Portland/2829-SE-Belmont-St-97214/unit-104/home/26460389,RMLS,20017934,N,Y,45.5166282,-122.6363127
PAST SALE,June-4-2021,Single Family Residential,2515 N Willis Blvd,Portland,OR,97217,475000,3,2.5,Portland North,1404,2613,2008,,338,,Sold,,,https://www.redfin.com/OR/Portland/2515-N-Willis-Blvd-97217/home/25763979,RMLS,21296182,N,Y,45.5839532,-122.6925113
PAST SALE,May-14-2020,Single Family Residential,3273 N Arlington Pl,Portland,OR,97217,386000,3,2.5,KENTON,1423,2178,2005,,271,,Sold,,,https://www.redfin.com/OR/Portland/3273-N-Arlington-Pl-97217/home/25859653,RMLS,20692491,N,Y,45.5835309,-122.7004973
PAST SALE,November-10-2020,Single Family Residential,10025 N Central St,Portland,OR,97203,397000,3,1.0,St Johns,888,,1961,,447,,Sold,,,https://www.redfin.com/OR/Portland/10025-N-Central-St-97203/home/26308780,RMLS,20339819,N,Y,45.6002012,-122.7598249
PAST SALE,September-16-2020,Condo/Co-op,1910 SW 18th Ave #41,Portland,OR,97201,345000,2,2.0,"Portland West, Raleigh Hills",1029,,1990,,335,641,Sold,,,https://www.redfin.com/OR/Portland/1910-SW-18th-Ave-97201/unit-41/home/26405288,RMLS,20122084,N,Y,45.5139724,-122.6945964
PAST SALE,June-15-2020,Single Family Residential,12919 SW Buckfield Ln,Tigard,OR,97224,566000,4,3.0,King City,2770,5662,2016,,204,,Sold,,,https://www.redfin.com/OR/King-City/12919-SW-Buckfield-Ln-97224/home/103781922,RMLS,20581761,N,Y,45.4004307,-122.8101552
PAST SALE,July-24-2020,Single Family Residential,9124 SE Alder St,Portland,OR,97216,372000,2,1.0,MONTAVILLA,724,4791,1947,,514,,Sold,,,https://www.redfin.com/OR/Portland/9124-SE-Alder-St-97216/home/25800702,RMLS,20343512,N,Y,45.5173991,-122.5698033
PAST SALE,July-24-2020,Single Family Residential,6845 SE Knight St,Portland,OR,97206,405000,3,2.5,MT SCOTT/ARLETA/WOODSTOCK,1546,4791,1997,,262,,Sold,,,https://www.redfin.com/OR/Portland/6845-SE-Knight-St-97206/home/26506653,RMLS,20139259,N,Y,45.4802982,-122.5922191
PAST SALE,May-4-2020,Single Family Residential,7045 SW Ventura Dr,Tigard,OR,97223,575000,4,3.0,"Tigard, Tualatin, Sherwood, Wilsonville",3168,7840,1975,,182,8,Sold,,,https://www.redfin.com/OR/Tigard/7045-SW-Ventura-Dr-97223/home/26703085,RMLS,20597633,N,Y,45.4482662,-122.7496623
PAST SALE,March-5-2021,Single Family Residential,1615 SW Skyline Blvd,Portland,OR,97221,650000,3,2.0,"Portland West, Raleigh Hills",2119,25264,1939,,307,,Sold,,,https://www.redfin.com/OR/Portland/1615-SW-Skyline-Blvd-97221/home/26432370,RMLS,21472405,N,Y,45.5116148,-122.7332979
PAST SALE,June-9-2020,Single Family Residential,2337 NW Ramsey Dr,Portland,OR,97229,651000,3,3.0,"Portland West, Raleigh Hills",2020,13068,1998,,322,,Sold,,,https://www.redfin.com/OR/Portland/2337-NW-Ramsey-Dr-97229/home/25773574,RMLS,20195007,N,Y,45.5394637,-122.7584688
PAST SALE,April-9-2021,Single Family Residential,2811 SE 50th Ave,Portland,OR,97206,450000,2,1.0,Portland Southeast,1246,4356,1922,,361,,Sold,,,https://www.redfin.com/OR/Portland/2811-SE-50th-Ave-97206/home/26529216,RMLS,21526219,N,Y,45.5023923,-122.6112662
PAST SALE,June-4-2021,Single Family Residential,126 NE 73rd Ave,Portland,OR,97213,620000,3,2.0,Portland Northeast,2054,6969,1948,,302,,Sold,,,https://www.redfin.com/OR/Portland/126-NE-73rd-Ave-97213/home/26340798,RMLS,20272848,N,Y,45.524057,-122.5876588
PAST SALE,June-16-2021,Single Family Residential,6125 NE Beech St,Portland,OR,97213,600000,3,2.0,Portland Northeast,2072,4791,1924,,290,,Sold,,,https://www.redfin.com/OR/Portland/6125-NE-Beech-St-97213/unit-A/home/26616929,RMLS,21374192,N,Y,45.5498474,-122.6003293
PAST SALE,October-16-2020,Condo/Co-op,2607 SE 109th Ave,Portland,OR,97266,325000,3,3.5,Portland Southeast,1865,,2010,,174,306,Sold,,,https://www.redfin.com/OR/Portland/2607-SE-109th-Ave-97266/home/109514982,RMLS,20135976,N,Y,45.5032178,-122.5515602
PAST SALE,July-2-2021,Single Family Residential,9835 SE Mary Jean Ct,Portland,OR,97266,456000,3,2.0,Lents,1518,6969,1997,,300,,Sold,,,https://www.redfin.com/OR/Portland/9835-SE-Mary-Jean-Ct-97266/home/26538448,RMLS,21053121,N,Y,45.4666567,-122.5616317
PAST SALE,April-30-2021,Townhouse,2375 NW Overton St,Portland,OR,97210,1025000,2,2.5,"Portland West, Raleigh Hills",2078,1742,1990,,493,,Sold,,,https://www.redfin.com/OR/Portland/2375-NW-Overton-St-97210/home/26462918,RMLS,21161093,N,Y,45.532123,-122.700292
PAST SALE,July-9-2021,Single Family Residential,4135 SE 30th Ave,Portland,OR,97202,1135000,5,3.5,Portland Southeast,3555,4791,2017,,319,,Sold,,,https://www.redfin.com/OR/Portland/4135-SE-30th-Ave-97202/home/26567591,RMLS,21258670,N,Y,45.4927452,-122.6348371
PAST SALE,May-19-2021,Single Family Residential,3617 SE 11th Ave,Portland,OR,97202,549900,3,2.5,Portland Southeast,1456,4791,1994,,378,,Sold,,,https://www.redfin.com/OR/Portland/3617-SE-11th-Ave-97202/home/25830417,RMLS,21141143,N,Y,45.4966255,-122.6551295
PAST SALE,February-8-2021,Single Family Residential,8315 NE Eugene St,Portland,OR,97220,415000,3,1.5,Portland Southeast,2328,5227,1910,,178,,Sold,,,https://www.redfin.com/OR/Portland/8315-NE-Eugene-St-97220/home/26535958,RMLS,20087456,N,Y,45.538199,-122.5773393
PAST SALE,January-22-2021,Single Family Residential,1147 SE 175th Pl,Portland,OR,97233,415000,5,2.5,Portland Southeast,2160,9583,1956,,192,,Sold,,,https://www.redfin.com/OR/Portland/1147-SE-175th-Pl-97233/home/26530864,RMLS,20266010,N,Y,45.514368,-122.4831277
PAST SALE,June-21-2021,Condo/Co-op,1420 NW Lovejoy St #324,Portland,OR,97209,325000,1,1.0,THE PEARL DISTRICT,624,,1910,,521,366,Sold,,,https://www.redfin.com/OR/Portland/1420-NW-Lovejoy-St-97209/unit-324/home/26372169,RMLS,21466558,N,Y,45.5299226,-122.6860554
PAST SALE,August-14-2020,Single Family Residential,5816 SE 77th Ave,Portland,OR,97206,425000,3,2.5,Portland Southeast,1660,2613,2011,,256,,Sold,,,https://www.redfin.com/OR/Portland/5816-SE-77th-Ave-97206/home/35658508,RMLS,20602433,N,Y,45.4806826,-122.5838685
PAST SALE,July-20-2020,Single Family Residential,8816 N Burrage Ave,Portland,OR,97217,470000,3,2.5,KENTON,1656,2613,2017,,284,,Sold,,,https://www.redfin.com/OR/Portland/8816-N-Burrage-Ave-97217/home/49692767,RMLS,20356344,N,Y,45.5863302,-122.6948526
PAST SALE,June-1-2021,Single Family Residential,5734 N Moore Ave,Portland,OR,97217,685734,3,1.0,HUMBOLDT,2333,4791,1937,,294,,Sold,,,https://www.redfin.com/OR/Portland/5734-N-Moore-Ave-97217/home/26546892,RMLS,21135252,N,Y,45.5644579,-122.6676891
PAST SALE,December-29-2020,Single Family Residential,834 NE Shaver St,Portland,OR,97212,464000,3,1.0,SABIN,1386,1742,1911,,335,,Sold,,,https://www.redfin.com/OR/Portland/834-NE-Shaver-St-97212/home/26405447,RMLS,20036596,N,Y,45.5519002,-122.6568557
PAST SALE,May-12-2021,Single Family Residential,5224 NE Mallory Ave,Portland,OR,97211,930000,4,3.5,Portland Northeast,3177,5227,2006,,293,,Sold,,,https://www.redfin.com/OR/Portland/5224-NE-Mallory-Ave-97211/home/26589144,RMLS,21072937,N,Y,45.5609245,-122.6634415
PAST SALE,May-13-2021,Single Family Residential,2406 NE 42nd Ave,Portland,OR,97213,745000,4,2.0,GRANT PARK / HOLLYWOOD,2192,,1922,,340,,Sold,,,https://www.redfin.com/OR/Portland/2406-NE-42nd-Ave-97213/home/26621236,RMLS,21641033,N,Y,45.5398742,-122.6196575
PAST SALE,November-12-2021,Single Family Residential,14909 NW Olive St,Portland,OR,97229,836000,4,2.5,NW Washington Co or Sauvie Island,3104,4356,2018,,269,93,Sold,,,https://www.redfin.com/OR/Portland/14909-NW-Olive-St-97229/home/160310937,RMLS,21469618,N,Y,45.5731834,-122.8298938
PAST SALE,September-28-2021,Single Family Residential,2005 SE 143rd Ave,Portland,OR,97233,320000,2,1.0,CENTENNIAL,828,6969,1952,,386,,Sold,,,https://www.redfin.com/OR/Portland/2005-SE-143rd-Ave-97233/home/26592784,RMLS,21265879,N,Y,45.508605,-122.515784
PAST SALE,September-17-2021,Single Family Residential,9352 NW Fox Hollow Ct,Portland,OR,97229,650000,3,2.5,NW Washington Co or Sauvie Island,1648,7405,1989,,394,,Sold,,,https://www.redfin.com/OR/Portland/9352-NW-Fox-Hollow-Ct-97229/home/25763337,RMLS,21010618,N,Y,45.5233542,-122.773124
PAST SALE,October-8-2020,Single Family Residential,1900 NW Millcrest Pl,Portland,OR,97229,674950,4,3.5,NW Washington Co or Sauvie Island,2684,5662,1999,,251,,Sold,,,https://www.redfin.com/OR/Portland/1900-NW-Millcrest-Pl-97229/home/26678572,RMLS,20200571,N,Y,45.5331999,-122.7825355
PAST SALE,July-22-2021,Single Family Residential,8795 SW Birchwood Rd,Portland,OR,97225,1360000,3,2.5,"Portland West, Raleigh Hills",3023,25264,1950,,450,,Sold,,,https://www.redfin.com/OR/Portland/8795-SW-Birchwood-Rd-97225/home/26573815,RMLS,21398509,N,Y,45.4920854,-122.7673154
PAST SALE,August-31-2021,Single Family Residential,3416 NE 65th Ave,Portland,OR,97213,600000,3,2.0,Portland Northeast,2200,4791,1923,,273,,Sold,,,https://www.redfin.com/OR/Portland/3416-NE-65th-Ave-97213/home/26567427,RMLS,21399766,N,Y,45.5477023,-122.5960792
PAST SALE,September-1-2021,Townhouse,11928 SE Schiller St,Portland,OR,97266,335000,3,1.5,Portland Southeast,1395,2613,2004,,240,,Sold,,,https://www.redfin.com/OR/Portland/11928-SE-Schiller-St-97266/home/26603109,RMLS,21330220,N,Y,45.487346,-122.540234
PAST SALE,June-10-2021,Single Family Residential,354 SE 119th Ave,Portland,OR,97216,366480,3,1.0,Portland Southeast,1028,,1952,,356,34,Sold,,,https://www.redfin.com/OR/Portland/354-SE-119th-Ave-97216/unit-1/home/26648072,RMLS,21392977,N,Y,45.5200203,-122.5401055
PAST SALE,June-24-2020,Condo/Co-op,8092 N Burlington Ave Unit 15-6,Portland,OR,97203,319900,2,2.5,ST JOHNS,1204,,2007,,266,272,Sold,,,https://www.redfin.com/OR/Portland/8092-N-Burlington-Ave-97203/unit-15-6/home/26446395,RMLS,20314917,N,Y,45.5919538,-122.7534732
PAST SALE,April-5-2021,Single Family Residential,16452 NE Fargo St,Portland,OR,97230,480000,4,3.0,WILKES COMMUNITY GROUP,2272,7840,1979,,211,,Sold,,,https://www.redfin.com/OR/Portland/16452-NE-Fargo-St-97230/home/26475843,RMLS,21669914,N,Y,45.5444072,-122.4920555
PAST SALE,August-4-2021,Condo/Co-op,303 NW Uptown Ter Unit 1A,Portland,OR,97210,319000,1,1.0,HILLSIDE,637,,1990,,501,246,Sold,,,https://www.redfin.com/OR/Portland/303-NW-Uptown-Ter-97210/unit-1A/home/26566101,RMLS,21548202,N,Y,45.5248387,-122.7022344
PAST SALE,September-8-2021,Single Family Residential,9120 SW 43rd Ave,Portland,OR,97219,575000,3,2.0,"Portland West, Raleigh Hills",1063,6969,1941,,541,,Sold,,,https://www.redfin.com/OR/Portland/9120-SW-43rd-Ave-97219/home/26511985,RMLS,21066517,N,Y,45.4591569,-122.7212688
PAST SALE,July-13-2020,Single Family Residential,5265 NE Cleveland Ave,Portland,OR,97211,850000,5,4.0,Portland North,3416,4791,1907,,249,,Sold,,,https://www.redfin.com/OR/Portland/5265-NE-Cleveland-Ave-97211/home/26478757,RMLS,20269591,N,Y,45.5614641,-122.6661211
PAST SALE,August-17-2021,Single Family Residential,6105 SE 91st Ave,Portland,OR,97266,448000,3,2.0,Portland Southeast,1480,6098,2002,,303,,Sold,,,https://www.redfin.com/OR/Portland/6105-SE-91st-Ave-97266/home/26437516,RMLS,21098892,N,Y,45.4784972,-122.5699009
PAST SALE,August-4-2021,Condo/Co-op,1455 N Killingsworth St #217,Portland,OR,97217,270000,1,1.0,Killingsworth Station/Overlook,607,,2012,,445,338,Sold,,,https://www.redfin.com/OR/Portland/1455-N-Killingsworth-St-97217/unit-217/home/40550331,RMLS,21007358,N,Y,45.5628882,-122.6817647
PAST SALE,November-4-2021,Single Family Residential,4331 NE 92nd Ave,Portland,OR,97220,373000,2,1.0,ROCKY BUTTE,676,6098,1925,,552,,Sold,,,https://www.redfin.com/OR/Portland/4331-NE-92nd-Ave-97220/home/26553196,RMLS,21620050,N,Y,45.5540812,-122.5685238
PAST SALE,February-23-2021,Single Family Residential,1634 NE Saratoga St,Portland,OR,97211,650000,4,3.0,DEKUM TRIANGLE / WOODLAWN,2337,4791,1928,,278,,Sold,,,https://www.redfin.com/OR/Portland/1634-NE-Saratoga-St-97211/home/26461011,RMLS,20262216,N,Y,45.5723993,-122.648553
PAST SALE,September-2-2021,Single Family Residential,8126 N Ivanhoe St,Portland,OR,97203,498500,4,2.0,Portland North,2392,4791,1928,,208,,Sold,,,https://www.redfin.com/OR/Portland/8126-N-Ivanhoe-St-97203/home/26497991,RMLS,21273920,N,Y,45.5879984,-122.7510235
PAST SALE,October-29-2021,Condo/Co-op,1535 SW Clay St #218,Portland,OR,97201,348000,2,2.0,"Portland West, Raleigh Hills",779,,1982,,447,324,Sold,,,https://www.redfin.com/OR/Portland/1535-SW-Clay-St-97201/unit-218/home/26607596,RMLS,21281932,N,Y,45.5165416,-122.6903036
PAST SALE,October-29-2021,Single Family Residential,542 SE 164th Ave,Portland,OR,97233,375000,3,2.0,CENTENNIAL COMMUNITY ASSOCIATI,1244,9583,1956,,301,,Sold,,,https://www.redfin.com/OR/Portland/542-SE-164th-Ave-97233/home/26309649,RMLS,21065546,N,Y,45.5185138,-122.4935671
PAST SALE,August-31-2021,Single Family Residential,4569 NE 78th Pl,Portland,OR,97218,550000,3,2.0,CULLY ASSOCIATION OF NEIGHBORS,1725,9147,1951,,319,,Sold,,,https://www.redfin.com/OR/Portland/4569-NE-78th-Pl-97218/home/26339442,RMLS,21694057,N,Y,45.5564243,-122.5819691
PAST SALE,April-15-2021,Single Family Residential,8544 NE Boehmer St,Portland,OR,97220,390000,2,1.0,MADISON SOUTH,810,4356,1953,,481,,Sold,,,https://www.redfin.com/OR/Portland/8544-NE-Boehmer-St-97220/home/26624042,RMLS,21544210,N,Y,45.5472459,-122.5755152
PAST SALE,August-20-2021,Single Family Residential,14038 SE Bush St,Portland,OR,97236,455000,3,2.5,Portland Southeast,1349,6534,1986,,337,,Sold,,,https://www.redfin.com/OR/Portland/14038-SE-Bush-St-97236/home/26423927,RMLS,21304636,N,Y,45.4943526,-122.5185307
PAST SALE,August-30-2021,Townhouse,5919 SE 134th Ave,Portland,OR,97236,365000,3,2.5,Portland Southeast,1468,2178,2008,,249,,Sold,,,https://www.redfin.com/OR/Portland/5919-SE-134th-Ave-97236/home/26645309,RMLS,21013184,N,Y,45.478994,-122.525988
PAST SALE,May-25-2021,Single Family Residential,1552 N Alberta St,Portland,OR,97217,665000,3,2.0,Portland North,2014,4791,1942,,330,,Sold,,,https://www.redfin.com/OR/Portland/1552-N-Alberta-St-97217/home/26327111,RMLS,21393590,N,Y,45.5589434,-122.6834765
PAST SALE,October-7-2021,Single Family Residential,2875 NE Hamblet St,Portland,OR,97212,1275000,5,3.0,Portland Northeast,2701,3920,2019,,472,,Sold,,,https://www.redfin.com/OR/Portland/2875-NE-Hamblet-St-97212/home/170024684,RMLS,21690092,N,Y,45.5506056,-122.6363293
PAST SALE,May-21-2021,Single Family Residential,4429 SE 46th Ave,Portland,OR,97206,525000,3,1.0,CRESTON - KENILWORTH,1594,4791,1929,,329,,Sold,,,https://www.redfin.com/OR/Portland/4429-SE-46th-Ave-97206/home/25893435,RMLS,21082148,N,Y,45.4908267,-122.6151733
PAST SALE,March-5-2021,Single Family Residential,4561 NW Continental Pl,Beaverton,OR,97006,450000,3,2.5,NW Washington Co or Sauvie Island,1518,2613,2000,,296,75,Sold,,,https://www.redfin.com/OR/Beaverton/4561-NW-Continental-Pl-97006/home/25781649,RMLS,21067322,N,Y,45.5528485,-122.8507945
PAST SALE,June-4-2021,Condo/Co-op,1500 SW Park Ave #332,Portland,OR,97201,245000,1,1.0,"Portland West, Raleigh Hills",482,,1988,,508,279,Sold,,,https://www.redfin.com/OR/Portland/1500-SW-Park-Ave-97201/unit-332/home/25827848,RMLS,21458219,N,Y,45.5138375,-122.6835141
PAST SALE,May-5-2020,Single Family Residential,2551 SE 167th Ave,Portland,OR,97236,225000,2,1.0,Portland Southeast,790,5227,1946,,285,,Sold,,,https://www.redfin.com/OR/Portland/2551-SE-167th-Ave-97236/home/25774232,RMLS,20598733,N,Y,45.5038081,-122.4914556
PAST SALE,April-30-2021,Single Family Residential,2920 SE Vineyard Rd,Milwaukie,OR,97267,550000,4,2.5,"Milwaukie, Gladstone, Happy Valley, Clckmas, Dmscus, Estacada",1943,11761,1977,,283,,Sold,,,https://www.redfin.com/OR/Milwaukie/2920-SE-Vineyard-Rd-97267/home/26069802,RMLS,21443237,N,Y,45.4016575,-122.6323519
PAST SALE,February-8-2021,Townhouse,31 S Hamilton St,Portland,OR,97239,390000,2,2.5,Corbett/LairHill/Johns Landing,1114,1306,1999,,350,67,Sold,,,https://www.redfin.com/OR/Portland/31-S-Hamilton-St-97239/home/25770932,RMLS,20190921,N,Y,45.491135,-122.677109
PAST SALE,,Single Family Residential,11312 SE Flavel St,Portland,OR,97266,,3,2.5,,1379,14375,1977,,,,Sold,,,https://www.redfin.com/OR/Portland/11312-SE-Flavel-St-97266/home/26435008,RMLS,,N,Y,45.4678772,-122.5463705
PAST SALE,June-30-2020,Single Family Residential,6303 SE 61st Ave,Portland,OR,97206,330000,2,1.0,Portland Southeast,980,4791,1924,,337,,Sold,,,https://www.redfin.com/OR/Portland/6303-SE-61st-Ave-97206/home/26519760,RMLS,20614830,N,Y,45.4772245,-122.6012354
PAST SALE,November-30-2020,Single Family Residential,2103 NE 13th Ave,Portland,OR,97212,882500,5,3.0,IRVINGTON,3156,4791,1904,,280,,Sold,,,https://www.redfin.com/OR/Portland/2103-NE-13th-Ave-97212/home/26436455,RMLS,20689746,N,Y,45.5376099,-122.65276
PAST SALE,August-20-2020,Townhouse,16228 NW Fescue Ct Unit End,Portland,OR,97229,373500,3,2.5,NW Washington Co or Sauvie Island,1576,3049,2001,,237,250,Sold,,,https://www.redfin.com/OR/Portland/16228-NW-Fescue-Ct-97229/home/26641807,RMLS,20300882,N,Y,45.5641559,-122.8441091
PAST SALE,May-20-2020,Single Family Residential,14772 NW Hydrangea Ct,Portland,OR,97229,537000,4,2.5,NW Washington Co or Sauvie Island,2004,3484,2015,,268,117,Sold,,,https://www.redfin.com/OR/Portland/14772-NW-Hydrangea-Ct-97229/home/101101835,RMLS,20102711,N,Y,45.5703561,-122.8295927
PAST SALE,August-31-2020,Single Family Residential,4127 NE 131st Pl,Portland,OR,97230,490000,3,2.5,ARGAY,2587,7405,1969,,189,,Sold,,,https://www.redfin.com/OR/Portland/4127-NE-131st-Pl-97230/home/26417431,RMLS,20219765,N,Y,45.5529771,-122.5292298
PAST SALE,July-24-2020,Single Family Residential,18382 SE Stephens St,Portland,OR,97233,380000,3,2.5,Portland Southeast,1652,4791,2001,,230,,Sold,,,https://www.redfin.com/OR/Portland/18382-SE-Stephens-St-97233/home/26368243,RMLS,20523177,N,Y,45.5089155,-122.4735714
PAST SALE,October-21-2020,Single Family Residential,2525 NW Arnott Ln,Portland,OR,97229,629900,4,2.5,IRON RIDGE PARK,2324,4791,2011,,271,30,Sold,,,https://www.redfin.com/OR/Portland/2525-NW-Arnott-Ln-97229/home/26651664,RMLS,20264930,N,Y,45.537885,-122.7953286
PAST SALE,January-29-2021,Townhouse,11756 SE Oak St,Portland,OR,97216,315000,3,2.5,Portland Southeast,1272,2613,2001,,248,,Sold,,,https://www.redfin.com/OR/Portland/11756-SE-Oak-St-97216/home/26371229,RMLS,20239492,N,Y,45.5195038,-122.5416924
PAST SALE,May-15-2020,Single Family Residential,6228 SE Lincoln St,Portland,OR,97215,471937,3,2.0,Portland Southeast,1222,4791,1988,,386,,Sold,,,https://www.redfin.com/OR/Portland/6228-SE-Lincoln-St-97215/home/26519948,RMLS,20383511,N,Y,45.5078558,-122.5991567
PAST SALE,March-5-2021,Condo/Co-op,2005 NE 17th Ave #3,Portland,OR,97212,420000,2,1.0,Portland Northeast,977,,1913,,430,350,Sold,,,https://www.redfin.com/OR/Portland/2005-NE-17th-Ave-97212/unit-3/home/26645581,RMLS,21540297,N,Y,45.5370264,-122.6487079
PAST SALE,January-15-2021,Condo/Co-op,3246 SW 2nd Ave,Portland,OR,97239,580000,2,2.5,"Portland West, Raleigh Hills",2444,,2016,,237,121,Sold,,,https://www.redfin.com/OR/Portland/3246-SW-2nd-Ave-97239/home/113029147,RMLS,20167165,N,Y,45.499867,-122.679596
PAST SALE,November-9-2020,Single Family Residential,1423 NE 72nd Ave,Portland,OR,97213,370000,2,1.0,MONTAVILLA,1440,6098,1945,,257,,Sold,,,https://www.redfin.com/OR/Portland/1423-NE-72nd-Ave-97213/home/26501462,RMLS,20434462,N,Y,45.5332138,-122.5889564
PAST SALE,June-3-2020,Single Family Residential,3232 SE Lambert St,Portland,OR,97202,650000,4,2.0,Eastmoreland,2866,6534,1941,,227,,Sold,,,https://www.redfin.com/OR/Portland/3232-SE-Lambert-St-97202/home/26478590,RMLS,20564270,N,Y,45.4675494,-122.6296827
PAST SALE,March-5-2021,Single Family Residential,3342 SW Huber St,Portland,OR,97219,617000,4,2.5,MARKHAM,2447,10018,1995,,252,,Sold,,,https://www.redfin.com/OR/Portland/3342-SW-Huber-St-97219/home/25785312,RMLS,21023184,N,Y,45.4515917,-122.7113353
PAST SALE,August-18-2020,Single Family Residential,11524 SW 35th Ave,Portland,OR,97219,540000,3,2.5,"Portland West, Raleigh Hills",1776,13939,1987,,304,,Sold,,,https://www.redfin.com/OR/Portland/11524-SW-35th-Ave-97219/home/26551534,RMLS,20438812,N,Y,45.4421906,-122.7123656
PAST SALE,February-22-2021,Single Family Residential,4549 SE Brae St,Milwaukie,OR,97222,520000,4,3.0,"Milwaukie, Gladstone, Happy Valley, Clckmas, Dmscus, Estacada",2220,10018,1977,,234,,Sold,,,https://www.redfin.com/OR/Milwaukie/4549-SE-Brae-St-97222/home/25948713,RMLS,20633369,N,Y,45.426852,-122.6161254
PAST SALE,February-26-2021,Single Family Residential,16215 SE Sterling Cir,Milwaukie,OR,97267,520000,3,2.0,"Milwaukie, Gladstone, Happy Valley, Clckmas, Dmscus, Estacada",1406,6098,1973,,370,,Sold,,,https://www.redfin.com/OR/Milwaukie/16215-SE-Sterling-Cir-97267/home/26034664,RMLS,21529972,N,Y,45.4051956,-122.6338446
PAST SALE,,Single Family Residential,8623 SE Taylor St,Portland,OR,97216,,3,1.0,,1102,4700,1943,,,,Sold,,,https://www.redfin.com/OR/Portland/8623-SE-Taylor-St-97216/home/25857648,RMLS,,N,Y,45.5156378,-122.5744183
PAST SALE,November-20-2020,Single Family Residential,30 NE Saratoga St,Portland,OR,97211,461000,3,1.5,PIEDMONT,960,4791,1976,,480,,Sold,,,https://www.redfin.com/OR/Portland/30-NE-Saratoga-St-97211/home/26402599,RMLS,20412935,N,Y,45.5723664,-122.6661175
PAST SALE,May-29-2020,Single Family Residential,7535 N Fenwick Ave,Portland,OR,97217,405000,4,1.0,Portland North,2504,5227,1923,,162,,Sold,,,https://www.redfin.com/OR/Portland/7535-N-Fenwick-Ave-97217/home/25804807,RMLS,20658637,N,Y,45.577699,-122.6850334
PAST SALE,November-10-2020,Single Family Residential,2244 SE 76th Ave,Portland,OR,97215,522500,3,2.0,MT. TABOR,1468,5227,1977,,356,,Sold,,,https://www.redfin.com/OR/Portland/2244-SE-76th-Ave-97215/home/26600936,RMLS,20600140,N,Y,45.5066341,-122.5849933
PAST SALE,May-7-2020,Single Family Residential,3243 SE 116th Ave,Portland,OR,97266,332500,3,2.0,REED VILLAGE,1125,9147,1952,,296,,Sold,,,https://www.redfin.com/OR/Portland/3243-SE-116th-Ave-97266/home/26478955,RMLS,20442063,N,Y,45.4983774,-122.5437416
PAST SALE,August-12-2020,Townhouse,1026 SE Linn St,Portland,OR,97202,424950,2,1.5,SELLWOOD,1440,871,2000,,295,,Sold,,,https://www.redfin.com/OR/Portland/1026-SE-Linn-St-97202/home/26422456,RMLS,20171069,N,Y,45.459173,-122.655376
PAST SALE,December-8-2020,Single Family Residential,7629 S Hood Ave,Portland,OR,97219,784100,3,3.0,JOHNS LANDING & FULTON PARK,2456,5227,1990,,319,,Sold,,,https://www.redfin.com/OR/Portland/7629-S-Hood-Ave-97219/home/25760392,RMLS,20048011,N,Y,45.4687321,-122.6746752
PAST SALE,May-21-2020,Single Family Residential,802 SW Terwilliger Pl,Portland,OR,97239,575000,3,2.0,HILLSDALE/BURLINGAME,2199,6969,1991,,261,,Sold,,,https://www.redfin.com/OR/Portland/802-SW-Terwilliger-Pl-97239/home/26508342,RMLS,20023150,N,Y,45.4788242,-122.6863498
PAST SALE,September-28-2020,Condo/Co-op,1410 NW Kearney St #520,Portland,OR,97209,434950,1,1.0,"Portland West, Raleigh Hills",847,,2004,,514,445,Sold,,,https://www.redfin.com/OR/Portland/1410-NW-Kearney-St-97209/unit-520/home/26598071,RMLS,20130671,N,Y,45.5292019,-122.6857475
PAST SALE,October-22-2020,Single Family Residential,3021 SE 78th Ave,Portland,OR,97206,480000,3,2.0,South Tabor,1440,4791,1944,,333,,Sold,,,https://www.redfin.com/OR/Portland/3021-SE-78th-Ave-97206/home/26583552,RMLS,20631102,N,Y,45.5003243,-122.5831546
PAST SALE,,Single Family Residential,204 NE 58th Ave,Portland,OR,97213,607500,3,4.5,,2236,5216,1931,,272,,,,,https://www.redfin.com/OR/Portland/204-NE-58th-Ave-97213/home/26455230,,,N,Y,45.5244065,-122.6040419
PAST SALE,December-14-2020,Condo/Co-op,935 SE 16th Ave #10,Portland,OR,97214,330000,2,1.0,BUCKMAN/BELMONT,820,,1958,,402,300,Sold,,,https://www.redfin.com/OR/Portland/935-SE-16th-Ave-97214/unit-10/home/25867977,RMLS,20272989,N,Y,45.5158537,-122.6499566
PAST SALE,May-13-2020,Single Family Residential,6335 NE 36th Ave,Portland,OR,97211,375000,3,1.0,Portland Northeast,1172,6098,1947,,320,,Sold,,,https://www.redfin.com/OR/Portland/6335-NE-36th-Ave-97211/home/26408541,RMLS,20638569,N,Y,45.5688898,-122.6268834
PAST SALE,May-29-2020,Condo/Co-op,7032 NE Garfield Ave Unit 12-1,Portland,OR,97211,305000,3,2.5,PIEDMONT,1165,,2008,,262,211,Sold,,,https://www.redfin.com/OR/Portland/7032-NE-Garfield-Ave-97211/unit-12-1/home/26451750,RMLS,20661173,N,Y,45.5742553,-122.6621494
PAST SALE,August-25-2020,Single Family Residential,3022 NW 109th Ter,Portland,OR,97229,665000,4,2.5,NW Washington Co or Sauvie Island,2700,5227,2005,,246,19,Sold,,,https://www.redfin.com/OR/Portland/3022-NW-109th-Ter-97229/home/25799119,RMLS,20073998,N,Y,45.5416255,-122.7886979
PAST SALE,October-27-2020,Townhouse,13101 SW Brianne Way,Tigard,OR,97223,399000,4,2.5,SCHOLLS MEADOWS,1876,2178,2001,,213,19,Sold,,,https://www.redfin.com/OR/Tigard/13101-SW-Brianne-Way-97223/home/26727343,RMLS,20094167,N,Y,45.4251276,-122.8308693
PAST SALE,July-24-2020,Single Family Residential,4703 NW Woodside Ter,Portland,OR,97210,1300000,3,2.5,Pittock Acres-Kings Hill,2389,20037,1952,,544,,Sold,,,https://www.redfin.com/OR/Portland/4703-NW-Woodside-Ter-97210/home/25831269,RMLS,20065874,N,Y,45.5199754,-122.7254453
PAST SALE,December-4-2020,Single Family Residential,17045 NW Saint Helens Rd,Portland,OR,97231,399900,4,2.0,NW Washington Co or Sauvie Island,2945,21780,1917,,136,,Sold,,,https://www.redfin.com/OR/Portland/17045-NW-St-Helens-Rd-97231/unit-11/home/26359068,RMLS,20245076,N,Y,45.6471861,-122.8447119
PAST SALE,June-15-2020,Single Family Residential,15134 NW Dane Ln,Portland,OR,97229,469000,4,2.0,Bethany,1569,6969,1995,,299,,Sold,,,https://www.redfin.com/OR/Portland/15134-NW-Dane-Ln-97229/home/26684172,RMLS,20100184,N,Y,45.5567094,-122.8327042
PAST SALE,July-20-2020,Single Family Residential,6720 NE Mallory Ave,Portland,OR,97211,510000,2,1.0,Portland Northeast,1752,4791,1926,,291,,Sold,,,https://www.redfin.com/OR/Portland/6720-NE-Mallory-Ave-97211/home/26519780,RMLS,20312229,N,Y,45.5714898,-122.6630762
PAST SALE,June-19-2020,Single Family Residential,14840 SE Rupert Dr,Milwaukie,OR,97267,433500,3,2.0,"Milwaukie, Gladstone, Happy Valley, Clckmas, Dmscus, Estacada",1487,5662,2014,,292,,Sold,,,https://www.redfin.com/OR/Milwaukie/14840-SE-Rupert-Dr-97267/home/25946212,RMLS,20514730,N,Y,45.4148496,-122.6399201
PAST SALE,December-2-2020,Single Family Residential,12140 NW Big Fir Ct,Portland,OR,97229,649900,4,3.0,BONNY SLOPE,3744,8712,1977,,174,,Sold,,,https://www.redfin.com/OR/Portland/12140-NW-Big-Fir-Ct-97229/home/26591359,RMLS,20408914,N,Y,45.5391877,-122.8016315
PAST SALE,August-11-2020,Single Family Residential,1310 NE 70th Ave,Portland,OR,97213,420000,3,1.0,Portland Southeast,1916,5227,1929,,219,,Sold,,,https://www.redfin.com/OR/Portland/1310-NE-70th-Ave-97213/home/26531334,RMLS,20125681,N,Y,45.5323537,-122.5906191
PAST SALE,March-4-2021,Single Family Residential,4335 NE 112th Ave,Portland,OR,97220,450000,3,2.0,Portland Northeast,2241,10018,1948,,201,,Sold,,,https://www.redfin.com/OR/Portland/4335-NE-112th-Ave-97220/home/26626558,RMLS,20608582,N,Y,45.5542356,-122.5478274
PAST SALE,November-30-2020,Single Family Residential,8605 N Dana Ave,Portland,OR,97203,450000,4,1.0,PORTSMOUTH,1506,4791,1948,,299,,Sold,,,https://www.redfin.com/OR/Portland/8605-N-Dana-Ave-97203/home/26549893,RMLS,20690917,N,Y,45.5849125,-122.7127035
PAST SALE,July-30-2020,Single Family Residential,8814 N Seward Ave,Portland,OR,97217,527000,4,2.0,KENTON,1415,7405,1963,,372,,Sold,,,https://www.redfin.com/OR/Portland/8814-N-Seward-Ave-97217/home/25858241,RMLS,20644185,N,Y,45.5866012,-122.704494
PAST SALE,February-17-2021,Single Family Residential,2820 SE 47th Ave,Portland,OR,97206,641700,5,3.0,Portland Southeast,2474,4791,1912,,259,,Sold,,,https://www.redfin.com/OR/Portland/2820-SE-47th-Ave-97206/home/26564311,RMLS,21480457,N,Y,45.5022525,-122.6137251
PAST SALE,August-26-2020,Single Family Residential,10160 SE Market St,Portland,OR,97216,410000,3,2.0,CHERRY PARK,1596,13068,1976,,257,,Sold,,,https://www.redfin.com/OR/Portland/10160-SE-Market-St-97216/home/26498423,RMLS,20328958,N,Y,45.5110373,-122.5583502
PAST SALE,August-20-2020,Single Family Residential,18709 SE River Rd,Milwaukie,OR,97267,636000,3,2.0,"Milwaukie, Gladstone, Happy Valley, Clckmas, Dmscus, Estacada",3057,24393,1953,,208,,Sold,,,https://www.redfin.com/OR/Portland/18709-SE-River-Rd-97267/home/26028262,RMLS,20269456,N,Y,45.387341,-122.613677
PAST SALE,September-3-2020,Single Family Residential,5075 SE Reedway St,Portland,OR,97206,595000,3,2.5,WOODSTOCK AREA,1868,2613,2015,,319,,Sold,,,https://www.redfin.com/OR/Portland/5075-SE-Reedway-St-97206/home/26304531,RMLS,20503428,N,Y,45.4814595,-122.60996
PAST SALE,November-5-2020,Condo/Co-op,4566 SW Comus Pl,Portland,OR,97219,236000,2,2.0,SOUTHWEST,1058,,1979,,223,397,Sold,,,https://www.redfin.com/OR/Portland/4566-SW-Comus-Pl-97219/unit-8-F/home/26525365,RMLS,20665670,N,Y,45.446398,-122.722753
PAST SALE,June-22-2020,Single Family Residential,1515 NE 172nd Ave,Portland,OR,97230,345000,3,2.0,"Gresham, Sandy, Troutdale, Corbett",1488,7405,1968,,232,,Sold,,,https://www.redfin.com/OR/Portland/1515-NE-172nd-Ave-97230/home/26331667,RMLS,20218476,N,Y,45.5339242,-122.48655
PAST SALE,July-30-2020,Single Family Residential,15995 SW Roshak Rd,Tigard,OR,97224,517500,6,3.0,"Tigard, Tualatin, Sherwood, Wilsonville",3300,20908,1980,,157,,Sold,,,https://www.redfin.com/OR/Tigard/15995-SW-Roshak-Rd-97224/home/25815528,RMLS,20396752,N,Y,45.4191605,-122.8410982
PAST SALE,November-30-2020,Single Family Residential,14744 NW Shackelford Rd,Portland,OR,97229,520000,3,2.5,BETHANY CREEK FALLS,1801,3484,2015,,289,,Sold,,,https://www.redfin.com/OR/Portland/14744-NW-Shackelford-Rd-97229/home/101101738,RMLS,20514989,N,Y,45.570554,-122.8290111
PAST SALE,November-18-2020,Single Family Residential,4305 SE Bybee Blvd,Portland,OR,97206,475000,3,1.0,Portland Southeast,1088,4791,1960,,437,,Sold,,,https://www.redfin.com/OR/Portland/4305-SE-Bybee-Blvd-97206/home/25826914,RMLS,20037279,N,Y,45.4727523,-122.6182974
PAST SALE,May-5-2020,Single Family Residential,4927 NE 89th Ave,Portland,OR,97220,328000,3,1.0,Portland Northeast,1551,3484,1952,,211,,Sold,,,https://www.redfin.com/OR/Portland/4927-NE-89th-Ave-97220/home/26363546,RMLS,20547841,N,Y,45.5590395,-122.5715298
PAST SALE,May-12-2020,Single Family Residential,14406 SE Carmichael Ct,Happy Valley,OR,97086,745000,4,2.5,"Milwaukie, Gladstone, Happy Valley, Clckmas, Dmscus, Estacada",3041,45302,1995,,245,,Sold,,,https://www.redfin.com/OR/Happy-Valley/14406-SE-Carmichael-Ct-97086/home/25965917,RMLS,20140207,N,Y,45.4561573,-122.5151025
PAST SALE,October-28-2020,Single Family Residential,6400 SW Taylors Ferry Rd,Portland,OR,97219,521000,4,2.5,"Portland West, Raleigh Hills",1812,9147,1952,,288,,Sold,,,https://www.redfin.com/OR/Portland/6400-SW-Taylors-Ferry-Rd-97219/home/26368129,RMLS,20570880,N,Y,45.4546252,-122.742526
PAST SALE,September-18-2020,Condo/Co-op,1500 SW 5th Ave #906,Portland,OR,97201,405000,2,2.0,"Portland West, Raleigh Hills",1319,,1973,,307,663,Sold,,,https://www.redfin.com/OR/Portland/1500-SW-5th-Ave-97201/unit-906/home/25793868,RMLS,20479420,N,Y,45.5131376,-122.6802246
PAST SALE,June-9-2020,Single Family Residential,10223 SW 32nd Pl,Portland,OR,97219,525000,3,3.0,"Portland West, Raleigh Hills",1912,10018,1986,,275,,Sold,,,https://www.redfin.com/OR/Portland/10223-SW-32nd-Pl-97219/home/25813829,RMLS,20440440,N,Y,45.4511006,-122.7099249
PAST SALE,June-21-2021,Single Family Residential,505 NE Stanton St,Portland,OR,97212,470000,2,1.0,Portland Northeast,1624,3049,1941,,289,,Sold,,,https://www.redfin.com/OR/Portland/505-NE-Stanton-St-97212/home/26496380,RMLS,21567516,N,Y,45.5440104,-122.6604339
PAST SALE,March-31-2021,Condo/Co-op,3601 S River Pkwy #706,Portland,OR,97239,300000,1,1.0,"JOHN ROSS, SOUTH WATERFRONT",768,,2006,,391,433,Sold,,,https://www.redfin.com/OR/Portland/3601-S-River-Pkwy-97239/unit-706/home/25743382,RMLS,21241555,N,Y,45.4967915,-122.6702786
PAST SALE,October-30-2020,Townhouse,4813 NW 162nd Ter,Portland,OR,97229,400000,3,2.5,NW Washington Co or Sauvie Island,1479,1742,2009,,270,225,Sold,,,https://www.redfin.com/OR/Portland/4813-NW-162nd-Ter-97229/home/25848108,RMLS,20193249,N,Y,45.5546273,-122.844082
PAST SALE,September-22-2020,Single Family Residential,15821 NW Trakehner Way,Portland,OR,97229,584325,5,3.0,NW Washington Co or Sauvie Island,2436,,1997,,240,,Sold,,,https://www.redfin.com/OR/Portland/15821-NW-Trakehner-Way-97229/home/26584609,RMLS,20383318,N,Y,45.5580349,-122.8398279
PAST SALE,July-7-2020,Single Family Residential,9416 NE Gertz Ct,Portland,OR,97211,261000,3,1.0,SNOOZY'S HOLLOW,822,5227,1944,,318,80,Sold,,,https://www.redfin.com/OR/Portland/9416-NE-Gertz-Ct-97211/home/26531384,RMLS,20364669,N,Y,45.5921936,-122.6649842
PAST SALE,October-6-2020,Single Family Residential,15343 NW Nightshade Dr,Portland,OR,97229,390000,3,2.5,NW Washington Co or Sauvie Island,1480,2613,1998,,264,8,Sold,,,https://www.redfin.com/OR/Portland/15343-NW-Nightshade-Dr-97229/home/25834141,RMLS,20546176,N,Y,45.566537,-122.8349204
PAST SALE,June-15-2021,Single Family Residential,8423 N Johnswood Dr,Portland,OR,97203,385000,2,1.0,Portland North,944,3920,2004,,408,,Sold,,,https://www.redfin.com/OR/Portland/8423-N-Johnswood-Dr-97203/home/26622167,RMLS,21366419,N,Y,45.6013446,-122.7469186
PAST SALE,September-25-2020,Single Family Residential,6451 NE Killingsworth Ct,Portland,OR,97218,310000,2,1.0,CULLY,966,2178,2009,,321,45,Sold,,,https://www.redfin.com/OR/Portland/6451-NE-Killingsworth-Ct-97218/home/25817633,RMLS,20031935,N,Y,45.5622945,-122.597237
PAST SALE,July-17-2020,Single Family Residential,8129 SE 141st Ave,Portland,OR,97236,419000,3,2.0,Portland Southeast,1500,6969,2001,,279,17,Sold,,,https://www.redfin.com/OR/Portland/8129-SE-141st-Ave-97236/home/26513849,RMLS,20347890,N,Y,45.4640396,-122.5187988
PAST SALE,November-24-2020,Single Family Residential,15721 SE Hawk Ct,Portland,OR,97236,444900,4,2.5,Portland Southeast,2037,5662,2003,,218,4,Sold,,,https://www.redfin.com/OR/Portland/15721-SE-Hawk-Ct-97236/home/26542223,RMLS,20266362,N,Y,45.4681444,-122.5011544
PAST SALE,July-17-2020,Single Family Residential,2947 NE 60th Ave,Portland,OR,97213,630000,3,2.5,Portland Northeast,2788,4791,1937,,226,,Sold,,,https://www.redfin.com/OR/Portland/2947-NE-60th-Ave-97213/home/26580575,RMLS,20410827,N,Y,45.5443719,-122.6017404
PAST SALE,July-19-2021,Townhouse,1814 NW 28th Ave,Portland,OR,97210,876250,3,2.5,Corbett/Lair Hill,2041,871,1993,,429,400,Sold,,,https://www.redfin.com/OR/Portland/1814-NW-28th-Ave-97210/home/26491195,RMLS,21615156,N,Y,45.535646,-122.708588
PAST SALE,August-6-2020,Single Family Residential,14842 SE Arista Dr,Milwaukie,OR,97267,434500,4,3.0,"Milwaukie, Gladstone, Happy Valley, Clckmas, Dmscus, Estacada",1552,5662,2010,,280,,Sold,,,https://www.redfin.com/OR/Milwaukie/14842-SE-Arista-Dr-97267/home/39502461,RMLS,20638539,N,Y,45.4158312,-122.6409832
PAST SALE,November-2-2021,Single Family Residential,2522 N Argyle St,Portland,OR,97217,540000,3,1.0,Kenton,2277,3484,1912,,237,,Sold,,,https://www.redfin.com/OR/Portland/2522-N-Argyle-St-97217/home/26530983,RMLS,21069333,N,Y,45.5842866,-122.6926907
PAST SALE,August-12-2021,Condo/Co-op,8558 SW 20th Ave,Portland,OR,97219,495000,3,2.5,MARKHAM,1660,,2016,,298,88,Sold,,,https://www.redfin.com/OR/Portland/8558-SW-20th-Ave-97219/home/49683052,RMLS,21177655,N,Y,45.462768,-122.6980654
PAST SALE,July-31-2020,Single Family Residential,2446 SE 77th Ave,Portland,OR,97206,517700,3,2.0,Portland Southeast,2444,5662,1955,,212,,Sold,,,https://www.redfin.com/OR/Portland/2446-SE-77th-Ave-97206/home/26496407,RMLS,20272560,N,Y,45.5046603,-122.5834607
PAST SALE,September-23-2021,Single Family Residential,4103 N Michigan Ave,Portland,OR,97217,577000,2,1.0,Portland Northeast,1699,3049,1940,,340,,Sold,,,https://www.redfin.com/OR/Portland/4103-N-Michigan-Ave-97217/home/26412504,RMLS,21222039,N,Y,45.5535011,-122.6768477
PAST SALE,March-31-2021,Townhouse,4063 N Commercial Ave,Portland,OR,97227,550000,3,2.5,Portland North,1627,2613,2005,,338,,Sold,,,https://www.redfin.com/OR/Portland/4063-N-Commercial-Ave-97227/home/26448937,RMLS,21459339,N,Y,45.553008847,-122.6714078
PAST SALE,August-16-2021,Single Family Residential,4700 SW Arnold St,Portland,OR,97219,525000,3,2.0,"Portland West, Raleigh Hills",1544,4791,1979,,340,,Sold,,,https://www.redfin.com/OR/Portland/4700-SW-Arnold-St-97219/home/25865201,RMLS,21056301,N,Y,45.444493,-122.7253863
PAST SALE,February-22-2021,Single Family Residential,7216 N Syracuse St,Portland,OR,97203,581000,3,2.0,Portland North,2496,7405,1906,,233,,Sold,,,https://www.redfin.com/OR/Portland/7216-N-Syracuse-St-97203/home/26508627,RMLS,21615128,N,Y,45.5847358,-122.742664
PAST SALE,December-7-2020,Condo/Co-op,3531 SW Troy St #9,Portland,OR,97219,235000,2,1.0,Multnomah Village,764,,1971,,308,250,Sold,,,https://www.redfin.com/OR/Portland/3531-SW-Troy-St-97219/unit-9/home/26446187,RMLS,20158752,N,Y,45.4683793,-122.7135642
PAST SALE,November-13-2020,Single Family Residential,5608 SW 42nd Ave,Portland,OR,97221,820000,4,3.0,"Portland West, Raleigh Hills",3176,6534,2018,,258,,Sold,,,https://www.redfin.com/OR/Portland/5608-SW-42nd-Ave-97221/home/113029139,RMLS,20112091,N,Y,45.4833804,-122.7201366
PAST SALE,September-3-2020,Single Family Residential,16171 SW Snapdragon Ln,Tigard,OR,97223,455000,3,2.5,"Tigard, Tualatin, Sherwood, Wilsonville",1550,6969,1995,,294,8,Sold,,,https://www.redfin.com/OR/Tigard/16171-SW-Snapdragon-Ln-97223/home/25760987,RMLS,20430532,N,Y,45.4226439,-122.8432175
PAST SALE,December-10-2020,Single Family Residential,16072 SW Snapdragon Ln,Tigard,OR,97223,440500,3,2.0,BULL MOUNTAIN MEADOWS,1333,6534,1996,,330,8,Sold,,,https://www.redfin.com/OR/Tigard/16072-SW-Snapdragon-Ln-97223/home/25820776,RMLS,20311193,N,Y,45.4223062,-122.8423555
PAST SALE,August-17-2021,Townhouse,6410 S Virginia Ave,Portland,OR,97239,555000,2,2.5,John's Landing,1470,1742,1990,,378,47,Sold,,,https://www.redfin.com/OR/Portland/6410-S-Virginia-Ave-97239/home/25848927,RMLS,21410536,N,Y,45.477756,-122.673545
PAST SALE,April-22-2021,Single Family Residential,815 SW Taylors Ferry Rd,Portland,OR,97219,470000,2,1.0,"Portland West, Raleigh Hills",1051,6098,1921,,447,,Sold,,,https://www.redfin.com/OR/Portland/815-SW-Taylors-Ferry-Rd-97219/home/26542025,RMLS,21556185,N,Y,45.4630681,-122.6869601
PAST SALE,April-14-2021,Single Family Residential,6609 NE Beech St,Portland,OR,97213,580000,4,3.0,ROSEWAY,2801,4356,1947,,207,,Sold,,,https://www.redfin.com/OR/Portland/6609-NE-Beech-St-97213/home/26508615,RMLS,21600010,N,Y,45.5497863,-122.5950242
PAST SALE,June-11-2021,Single Family Residential,7080 SE Pine St,Portland,OR,97215,820000,3,2.0,Mt Tabor,2168,4791,1953,,378,,Sold,,,https://www.redfin.com/OR/Portland/7080-SE-Pine-St-97215/home/26412650,RMLS,21162851,N,Y,45.5196216,-122.5904847
PAST SALE,May-12-2020,Single Family Residential,3415 NE 88th Ave,Portland,OR,97220,384000,2,1.0,Portland Northeast,1805,6534,1950,,213,,Sold,,,https://www.redfin.com/OR/Portland/3415-NE-88th-Ave-97220/home/26577614,RMLS,20019373,N,Y,45.5476626,-122.5721518
PAST SALE,June-11-2021,Single Family Residential,4126 NE 7th Ave,Portland,OR,97211,750000,5,3.0,SABIN,3165,4791,1911,,237,,Sold,,,https://www.redfin.com/OR/Portland/4126-NE-7th-Ave-97211/home/26504327,RMLS,21042803,N,Y,45.5537065,-122.6583733
PAST SALE,November-6-2020,Single Family Residential,1037 NE Madrona St,Portland,OR,97211,425000,3,2.0,Portland Northeast,1306,3049,2001,,325,,Sold,,,https://www.redfin.com/OR/Portland/1037-NE-Madrona-St-97211/home/26338572,RMLS,20079583,N,Y,45.5734787,-122.6559707
PAST SALE,April-16-2021,Single Family Residential,7323 SE Webster Ln,Milwaukie,OR,97267,515000,3,1.0,"Milwaukie, Gladstone, Happy Valley, Clckmas, Dmscus, Estacada",1587,10454,1969,,325,,Sold,,,https://www.redfin.com/OR/Milwaukie/7323-SE-Webster-Ln-97267/home/25949751,RMLS,21093371,N,Y,45.4079687,-122.5881529
PAST SALE,September-17-2021,Single Family Residential,16610 SE Harold Ave,Milwaukie,OR,97267,510000,4,2.5,"Milwaukie, Gladstone, Happy Valley, Clckmas, Dmscus, Estacada",1572,6534,1996,,324,,Sold,,,https://www.redfin.com/OR/Milwaukie/16610-SE-Harold-Ave-97267/home/26022235,RMLS,21049283,N,Y,45.4025614,-122.6163394
PAST SALE,August-20-2021,Single Family Residential,8220 SE 66th Ave,Portland,OR,97206,600000,4,2.0,Portland Southeast,1680,7840,1947,,357,,Sold,,,https://www.redfin.com/OR/Portland/8220-SE-66th-Ave-97206/home/26611939,RMLS,21493016,N,Y,45.4638102,-122.595324
PAST SALE,November-30-2020,Single Family Residential,2121 N Schofield St,Portland,OR,97217,514500,3,1.0,KENTON,2040,4356,1927,,252,,Sold,,,https://www.redfin.com/OR/Portland/2121-N-Schofield-St-97217/home/25824624,RMLS,20693477,N,Y,45.5818663,-122.6884643
PAST SALE,May-11-2021,Other,309 N Bridgeton Rd Unit B,Portland,OR,97217,239000,2,1.0,Portland North,755,5227,2003,,317,300,Sold,,,https://www.redfin.com/OR/Portland/309-N-Bridgeton-Rd-97217/unit-B/home/114084092,RMLS,21417340,N,Y,45.603123,-122.6688725
PAST SALE,September-22-2020,Townhouse,2215 SE Trolley Line Ln,Milwaukie,OR,97267,400000,4,2.5,"Milwaukie, Gladstone, Happy Valley, Clckmas, Dmscus, Estacada",1628,3484,2012,,246,,Sold,,,https://www.redfin.com/OR/Milwaukie/2215-SE-Trolley-Line-Ln-97267/home/40268588,RMLS,20030941,N,Y,45.41547,-122.640927
PAST SALE,July-22-2021,Condo/Co-op,5321 NE Irving St Unit C,Portland,OR,97213,330000,2,2.0,Portland Northeast,770,,2018,,429,177,Sold,,,https://www.redfin.com/OR/Portland/5321-NE-Irving-St-97213/unit-C/home/25803027,RMLS,21183205,N,Y,45.5285703,-122.6082362
PAST SALE,March-12-2021,Single Family Residential,9068 SE Hamilton Ln,Happy Valley,OR,97086,625000,5,3.5,"Milwaukie, Gladstone, Happy Valley, Clckmas, Dmscus, Estacada",3302,7840,2007,,189,48,Sold,,,https://www.redfin.com/OR/Happy-Valley/9068-SE-Hamilton-Ln-97086/home/26083542,RMLS,20456989,N,Y,45.4576954,-122.541781
PAST SALE,March-16-2021,Single Family Residential,5880 SE Hector St,Milwaukie,OR,97222,408000,3,1.0,"Milwaukie, Gladstone, Happy Valley, Clckmas, Dmscus, Estacada",1118,6969,1955,,365,,Sold,,,https://www.redfin.com/OR/Milwaukie/5880-SE-Hector-St-97222/home/25804202,RMLS,21229055,N,Y,45.4496255,-122.6037682
